{"results": [{"address_components": [{"long_name": "Mumbai", "short_name": "Mumbai", "types": ["locality", "political"]}, {"long_name": "Mumbai", "short_name": "Mumbai", "types": ["administrative_area_level_2", "political"]}, {"long_name": "Maharashtra", "short_name": "MH", "types": ["administrative_area_level_1", "political"]}, {"long_name": "India", "short_name": "IN", "types": ["country", "political"]}], "formatted_address": "Mumbai, Maharashtra, India", "geometry": {"bounds": {"northeast": {"lat": 19.2716339, "lng": 72.9864994}, "southwest": {"lat": 18.8928676, "lng": 72.7758729}}, "location": {"lat": 19.0759837, "lng": 72.8776559}, "location_type": "APPROXIMATE", "viewport": {"northeast": {"lat": 19.2716339, "lng": 72.9864994}, "southwest": {"lat": 18.8928676, "lng": 72.7758729}}}, "place_id": "ChIJwe1EZjDG5zsRaYxkjY_tpF0", "types": ["locality", "political"]}], "status": "OK"}
{"error_message": "Invalid request. Missing the 'address', 'components', 'latlng' or 'place_id' parameter.", "results": [], "status": "INVALID_REQUEST"}
{"results": [{"address_components": [{"long_name": "Delhi", "short_name": "DL", "types": ["administrative_area_level_1", "locality", "political"]}, {"long_name": "India", "short_name": "IN", "types": ["country", "political"]}], "formatted_address": "Delhi, India", "geometry": {"bounds": {"northeast": {"lat": 28.881338, "lng": 77.3484578}, "southwest": {"lat": 28.412593, "lng": 76.83806899999999}}, "location": {"lat": 28.7040592, "lng": 77.10249019999999}, "location_type": "APPROXIMATE", "viewport": {"northeast": {"lat": 28.881338, "lng": 77.3484578}, "southwest": {"lat": 28.412593, "lng": 76.83806899999999}}}, "place_id": "ChIJLbZ-NFv9DDkRQJY4FbcFcgM", "types": ["administrative_area_level_1", "locality", "political"]}], "status": "OK"}
{"error_message": "Invalid request. Missing the 'address', 'components', 'latlng' or 'place_id' parameter.", "results": [], "status": "INVALID_REQUEST"}
{"results": [{"address_components": [{"long_name": "Bengaluru", "short_name": "Bengaluru", "types": ["locality", "political"]}, {"long_name": "Bangalore Urban", "short_name": "Bangalore Urban", "types": ["administrative_area_level_2", "political"]}, {"long_name": "Karnataka", "short_name": "KA", "types": ["administrative_area_level_1", "political"]}, {"long_name": "India", "short_name": "IN", "types": ["country", "political"]}], "formatted_address": "Bengaluru, Karnataka, India", "geometry": {"bounds": {"northeast": {"lat": 13.173706, "lng": 77.8826809}, "southwest": {"lat": 12.7342888, "lng": 77.3791981}}, "location": {"lat": 12.9715987, "lng": 77.5945627}, "location_type": "APPROXIMATE", "viewport": {"northeast": {"lat": 13.173706, "lng": 77.8826809}, "southwest": {"lat": 12.7342888, "lng": 77.3791981}}}, "place_id": "ChIJbU60yXAWrjsR4E9-UejD3_g", "types": ["locality", "political"]}], "status": "OK"}
{"error_message": "Invalid request. Missing the 'address', 'components', 'latlng' or 'place_id' parameter.", "results": [], "status": "INVALID_REQUEST"}
{"results": [{"address_components": [{"long_name": "Hyderabad", "short_name": "Hyderabad", "types": ["locality", "political"]}, {"long_name": "Telangana", "short_name": "Telangana", "types": ["administrative_area_level_1", "political"]}, {"long_name": "India", "short_name": "IN", "types": ["country", "political"]}], "formatted_address": "Hyderabad, Telangana, India", "geometry": {"bounds": {"northeast": {"lat": 17.6078088, "lng": 78.6561694}, "southwest": {"lat": 17.2168886, "lng": 78.1599217}}, "location": {"lat": 17.385044, "lng": 78.486671}, "location_type": "APPROXIMATE", "viewport": {"northeast": {"lat": 17.6078088, "lng": 78.6561694}, "southwest": {"lat": 17.2168886, "lng": 78.1599217}}}, "place_id": "ChIJx9Lr6tqZyzsRwvu6koO3k64", "types": ["locality", "political"]}], "status": "OK"}
{"error_message": "Invalid request. Missing the 'address', 'components', 'latlng' or 'place_id' parameter.", "results": [], "status": "INVALID_REQUEST"}
{"results": [{"address_components": [{"long_name": "Ahmedabad", "short_name": "Ahmedabad", "types": ["locality", "political"]}, {"long_name": "Ahmedabad", "short_name": "Ahmedabad", "types": ["administrative_area_level_2", "political"]}, {"long_name": "Gujarat", "short_name": "GJ", "types": ["administrative_area_level_1", "political"]}, {"long_name": "India", "short_name": "IN", "types": ["country", "political"]}], "formatted_address": "Ahmedabad, Gujarat, India", "geometry": {"bounds": {"northeast": {"lat": 23.1378156, "lng": 72.7053737}, "southwest": {"lat": 22.9028759, "lng": 72.4541115}}, "location": {"lat": 23.022505, "lng": 72.5713621}, "location_type": "APPROXIMATE", "viewport": {"northeast": {"lat": 23.1863814, "lng": 72.7696027}, "southwest": {"lat": 22.8541054, "lng": 72.3898825}}}, "place_id": "ChIJSdRbuoqEXjkRFmVPYRHdzk8", "types": ["locality", "political"]}], "status": "OK"}
{"error_message": "Invalid request. Missing the 'address', 'components', 'latlng' or 'place_id' parameter.", "results": [], "status": "INVALID_REQUEST"}
{"results": [{"address_components": [{"long_name": "Chennai", "short_name": "Chennai", "types": ["locality", "political"]}, {"long_name": "Chennai", "short_name": "Chennai", "types": ["administrative_area_level_2", "political"]}, {"long_name": "Tamil Nadu", "short_name": "TN", "types": ["administrative_area_level_1", "political"]}, {"long_name": "India", "short_name": "IN", "types": ["country", "political"]}], "formatted_address": "Chennai, Tamil Nadu, India", "geometry": {"bounds": {"northeast": {"lat": 13.2611661, "lng": 80.33632279999999}, "southwest": {"lat": 12.8338848, "lng": 80.0817007}}, "location": {"lat": 13.0826802, "lng": 80.2707184}, "location_type": "APPROXIMATE", "viewport": {"northeast": {"lat": 13.2611661, "lng": 80.33632279999999}, "southwest": {"lat": 12.8338848, "lng": 80.0817007}}}, "place_id": "ChIJYTN9T-plUjoRM9RjaAunYW4", "types": ["locality", "political"]}], "status": "OK"}
{"error_message": "Invalid request. Missing the 'address', 'components', 'latlng' or 'place_id' parameter.", "results": [], "status": "INVALID_REQUEST"}
{"results": [{"address_components": [{"long_name": "Kolkata", "short_name": "Kolkata", "types": ["locality", "political"]}, {"long_name": "Kolkata", "short_name": "Kolkata", "types": ["administrative_area_level_2", "political"]}, {"long_name": "West Bengal", "short_name": "WB", "types": ["administrative_area_level_1", "political"]}, {"long_name": "India", "short_name": "IN", "types": ["country", "political"]}], "formatted_address": "Kolkata, West Bengal, India", "geometry": {"bounds": {"northeast": {"lat": 23.0083628, "lng": 88.5428696}, "southwest": {"lat": 22.3436288, "lng": 88.1165879}}, "location": {"lat": 22.572646, "lng": 88.36389500000001}, "location_type": "APPROXIMATE", "viewport": {"northeast": {"lat": 23.0083628, "lng": 88.5428696}, "southwest": {"lat": 22.3436288, "lng": 88.1165879}}}, "place_id": "ChIJZ_YISduC-DkRvCxsj-Yw40M", "types": ["locality", "political"]}], "status": "OK"}
{"error_message": "Invalid request. Missing the 'address', 'components', 'latlng' or 'place_id' parameter.", "results": [], "status": "INVALID_REQUEST"}
{"results": [{"address_components": [{"long_name": "Surat", "short_name": "Surat", "types": ["locality", "political"]}, {"long_name": "Surat", "short_name": "Surat", "types": ["administrative_area_level_2", "political"]}, {"long_name": "Gujarat", "short_name": "GJ", "types": ["administrative_area_level_1", "political"]}, {"long_name": "India", "short_name": "IN", "types": ["country", "political"]}], "formatted_address": "Surat, Gujarat, India", "geometry": {"bounds": {"northeast": {"lat": 21.2705834, "lng": 72.9432106}, "southwest": {"lat": 21.0478169, "lng": 72.7013819}}, "location": {"lat": 21.1702401, "lng": 72.83106070000001}, "location_type": "APPROXIMATE", "viewport": {"northeast": {"lat": 21.2705834, "lng": 72.9432106}, "southwest": {"lat": 21.0478169, "lng": 72.7013819}}}, "place_id": "ChIJYxUdQVlO4DsRQrA4CSlYRf4", "types": ["locality", "political"]}], "status": "OK"}
{"error_message": "Invalid request. Missing the 'address', 'components', 'latlng' or 'place_id' parameter.", "results": [], "status": "INVALID_REQUEST"}
{"results": [{"address_components": [{"long_name": "Pune", "short_name": "Pune", "types": ["locality", "political"]}, {"long_name": "Pune", "short_name": "Pune", "types": ["administrative_area_level_2", "political"]}, {"long_name": "Maharashtra", "short_name": "MH", "types": ["administrative_area_level_1", "political"]}, {"long_name": "India", "short_name": "IN", "types": ["country", "political"]}], "formatted_address": "Pune, Maharashtra, India", "geometry": {"bounds": {"northeast": {"lat": 18.6357545, "lng": 73.9864569}, "southwest": {"lat": 18.4134784, "lng": 73.7394779}}, "location": {"lat": 18.5204303, "lng": 73.8567437}, "location_type": "APPROXIMATE", "viewport": {"northeast": {"lat": 18.6357545, "lng": 73.9864569}, "southwest": {"lat": 18.4134784, "lng": 73.7394779}}}, "place_id": "ChIJARFGZy6_wjsRQ-Oenb9DjYI", "types": ["locality", "political"]}], "status": "OK"}
{"error_message": "Invalid request. Missing the 'address', 'components', 'latlng' or 'place_id' parameter.", "results": [], "status": "INVALID_REQUEST"}
{"results": [{"address_components": [{"long_name": "Jaipur", "short_name": "Jaipur", "types": ["locality", "political"]}, {"long_name": "Jaipur", "short_name": "Jaipur", "types": ["administrative_area_level_2", "political"]}, {"long_name": "Rajasthan", "short_name": "RJ", "types": ["administrative_area_level_1", "political"]}, {"long_name": "India", "short_name": "IN", "types": ["country", "political"]}], "formatted_address": "Jaipur, Rajasthan, India", "geometry": {"bounds": {"northeast": {"lat": 27.0206722, "lng": 75.94119069999999}, "southwest": {"lat": 26.7497493, "lng": 75.639925}}, "location": {"lat": 26.9124336, "lng": 75.7872709}, "location_type": "APPROXIMATE", "viewport": {"northeast": {"lat": 27.0206722, "lng": 75.94119069999999}, "southwest": {"lat": 26.7497493, "lng": 75.639925}}}, "place_id": "ChIJgeJXTN9KbDkRCS7yDDrG4Qw", "types": ["locality", "political"]}], "status": "OK"}
{"error_message": "Invalid request. Missing the 'address', 'components', 'latlng' or 'place_id' parameter.", "results": [], "status": "INVALID_REQUEST"}
{"results": [{"address_components": [{"long_name": "Lucknow", "short_name": "Lucknow", "types": ["locality", "political"]}, {"long_name": "Lucknow", "short_name": "Lucknow", "types": ["administrative_area_level_2", "political"]}, {"long_name": "Uttar Pradesh", "short_name": "UP", "types": ["administrative_area_level_1", "political"]}, {"long_name": "India", "short_name": "IN", "types": ["country", "political"]}], "formatted_address": "Lucknow, Uttar Pradesh, India", "geometry": {"bounds": {"northeast": {"lat": 26.9641146, "lng": 81.0544895}, "southwest": {"lat": 26.7332694, "lng": 80.830536}}, "location": {"lat": 26.8466937, "lng": 80.94616599999999}, "location_type": "APPROXIMATE", "viewport": {"northeast": {"lat": 26.9641146, "lng": 81.0544895}, "southwest": {"lat": 26.7332694, "lng": 80.830536}}}, "place_id": "ChIJa7EyH5n9mzkR54uXCYm6zJM", "types": ["locality", "political"]}], "status": "OK"}
{"error_message": "Invalid request. Missing the 'address', 'components', 'latlng' or 'place_id' parameter.", "results": [], "status": "INVALID_REQUEST"}
{"results": [{"address_components": [{"long_name": "Kanpur", "short_name": "Kanpur", "types": ["locality", "political"]}, {"long_name": "Kanpur Nagar", "short_name": "Kanpur Nagar", "types": ["administrative_area_level_2", "political"]}, {"long_name": "Uttar Pradesh", "short_name": "UP", "types": ["administrative_area_level_1", "political"]}, {"long_name": "India", "short_name": "IN", "types": ["country", "political"]}], "formatted_address": "Kanpur, Uttar Pradesh, India", "geometry": {"bounds": {"northeast": {"lat": 26.54308, "lng": 80.46798710000002}, "southwest": {"lat": 26.3512674, "lng": 80.2087784}}, "location": {"lat": 26.449923, "lng": 80.3318736}, "location_type": "APPROXIMATE", "viewport": {"northeast": {"lat": 26.54308, "lng": 80.46798710000002}, "southwest": {"lat": 26.3512674, "lng": 80.2087784}}}, "place_id": "ChIJb8QnsXBHnDkRQXu-nyoweBc", "types": ["locality", "political"]}], "status": "OK"}
{"error_message": "Invalid request. Missing the 'address', 'components', 'latlng' or 'place_id' parameter.", "results": [], "status": "INVALID_REQUEST"}
{"results": [{"address_components": [{"long_name": "Nagpur", "short_name": "Nagpur", "types": ["locality", "political"]}, {"long_name": "Nagpur", "short_name": "Nagpur", "types": ["administrative_area_level_2", "political"]}, {"long_name": "Maharashtra", "short_name": "MH", "types": ["administrative_area_level_1", "political"]}, {"long_name": "India", "short_name": "IN", "types": ["country", "political"]}], "formatted_address": "Nagpur, Maharashtra, India", "geometry": {"bounds": {"northeast": {"lat": 21.2633008, "lng": 79.18919559999999}, "southwest": {"lat": 21.0588709, "lng": 78.9558247}}, "location": {"lat": 21.1458004, "lng": 79.0881546}, "location_type": "APPROXIMATE", "viewport": {"northeast": {"lat": 21.2633008, "lng": 79.18919559999999}, "southwest": {"lat": 21.0588709, "lng": 78.9558247}}}, "place_id": "ChIJE68fo6XA1DsRKz670AZ9sxk", "types": ["locality", "political"]}], "status": "OK"}
{"error_message": "Invalid request. Missing the 'address', 'components', 'latlng' or 'place_id' parameter.", "results": [], "status": "INVALID_REQUEST"}
{"results": [{"address_components": [{"long_name": "Visakhapatnam", "short_name": "Visakhapatnam", "types": ["locality", "political"]}, {"long_name": "Vishakhapatnam", "short_name": "Vishakhapatnam", "types": ["administrative_area_level_2", "political"]}, {"long_name": "Andhra Pradesh", "short_name": "AP", "types": ["administrative_area_level_1", "political"]}, {"long_name": "India", "short_name": "IN", "types": ["country", "political"]}], "formatted_address": "Visakhapatnam, Andhra Pradesh, India", "geometry": {"bounds": {"northeast": {"lat": 17.9396846, "lng": 83.45858559999999}, "southwest": {"lat": 17.5376598, "lng": 83.0665969}}, "location": {"lat": 17.6868159, "lng": 83.2184815}, "location_type": "APPROXIMATE", "viewport": {"northeast": {"lat": 17.9396846, "lng": 83.45858559999999}, "southwest": {"lat": 17.5376598, "lng": 83.0665969}}}, "place_id": "ChIJP5fmiRNDOToRaIRJlQPC2ZI", "types": ["locality", "political"]}], "status": "OK"}
{"error_message": "Invalid request. Missing the 'address', 'components', 'latlng' or 'place_id' parameter.", "results": [], "status": "INVALID_REQUEST"}
{"results": [{"address_components": [{"long_name": "Indore", "short_name": "Indore", "types": ["locality", "political"]}, {"long_name": "Indore", "short_name": "Indore", "types": ["administrative_area_level_2", "political"]}, {"long_name": "Madhya Pradesh", "short_name": "MP", "types": ["administrative_area_level_1", "political"]}, {"long_name": "India", "short_name": "IN", "types": ["country", "political"]}], "formatted_address": "Indore, Madhya Pradesh, India", "geometry": {"bounds": {"northeast": {"lat": 22.8348736, "lng": 75.9619939}, "southwest": {"lat": 22.6130719, "lng": 75.7657059}}, "location": {"lat": 22.7195687, "lng": 75.8577258}, "location_type": "APPROXIMATE", "viewport": {"northeast": {"lat": 22.8348736, "lng": 75.9619939}, "southwest": {"lat": 22.6130719, "lng": 75.7657059}}}, "place_id": "ChIJ2w1BG638YjkR9EBiNdrEbgk", "types": ["locality", "political"]}], "status": "OK"}
{"error_message": "Invalid request. Missing the 'address', 'components', 'latlng' or 'place_id' parameter.", "results": [], "status": "INVALID_REQUEST"}
{"results": [{"address_components": [{"long_name": "Thane", "short_name": "Thane", "types": ["locality", "political"]}, {"long_name": "Thane", "short_name": "Thane", "types": ["administrative_area_level_2", "political"]}, {"long_name": "Maharashtra", "short_name": "MH", "types": ["administrative_area_level_1", "political"]}, {"long_name": "India", "short_name": "IN", "types": ["country", "political"]}], "formatted_address": "Thane, Maharashtra, India", "geometry": {"bounds": {"northeast": {"lat": 19.296441, "lng": 73.0766616}, "southwest": {"lat": 19.1313429, "lng": 72.926259}}, "location": {"lat": 19.2183307, "lng": 72.9780897}, "location_type": "APPROXIMATE", "viewport": {"northeast": {"lat": 19.296441, "lng": 73.0766616}, "southwest": {"lat": 19.1313429, "lng": 72.926259}}}, "place_id": "ChIJWf12_vy45zsRgwLF94V9Ns8", "types": ["locality", "political"]}], "status": "OK"}
{"error_message": "Invalid request. Missing the 'address', 'components', 'latlng' or 'place_id' parameter.", "results": [], "status": "INVALID_REQUEST"}
{"results": [{"address_components": [{"long_name": "Bhopal", "short_name": "Bhopal", "types": ["locality", "political"]}, {"long_name": "Bhopal", "short_name": "Bhopal", "types": ["administrative_area_level_2", "political"]}, {"long_name": "Madhya Pradesh", "short_name": "MP", "types": ["administrative_area_level_1", "political"]}, {"long_name": "India", "short_name": "IN", "types": ["country", "political"]}], "formatted_address": "Bhopal, Madhya Pradesh, India", "geometry": {"bounds": {"northeast": {"lat": 23.3326697, "lng": 77.5748062}, "southwest": {"lat": 23.0661497, "lng": 77.2369767}}, "location": {"lat": 23.2599333, "lng": 77.412615}, "location_type": "APPROXIMATE", "viewport": {"northeast": {"lat": 23.3326697, "lng": 77.5748062}, "southwest": {"lat": 23.0661497, "lng": 77.2369767}}}, "place_id": "ChIJvY_Wj49CfDkR-NRy1RZXFQI", "types": ["locality", "political"]}], "status": "OK"}
{"error_message": "Invalid request. Missing the 'address', 'components', 'latlng' or 'place_id' parameter.", "results": [], "status": "INVALID_REQUEST"}
{"results": [{"address_components": [{"long_name": "Pimpri-Chinchwad", "short_name": "Pimpri-Chinchwad", "types": ["locality", "political"]}, {"long_name": "Pune", "short_name": "Pune", "types": ["administrative_area_level_2", "political"]}, {"long_name": "Maharashtra", "short_name": "MH", "types": ["administrative_area_level_1", "political"]}, {"long_name": "India", "short_name": "IN", "types": ["country", "political"]}], "formatted_address": "Pimpri-Chinchwad, Maharashtra, India", "geometry": {"bounds": {"northeast": {"lat": 18.717141, "lng": 73.9075076}, "southwest": {"lat": 18.5642493, "lng": 73.6767812}}, "location": {"lat": 18.6297811, "lng": 73.7997094}, "location_type": "APPROXIMATE", "viewport": {"northeast": {"lat": 18.717141, "lng": 73.9075076}, "southwest": {"lat": 18.5642493, "lng": 73.6767812}}}, "place_id": "ChIJs-q9fze4wjsR-KCnsdplQiw", "types": ["locality", "political"]}], "status": "OK"}
{"error_message": "Invalid request. Missing the 'address', 'components', 'latlng' or 'place_id' parameter.", "results": [], "status": "INVALID_REQUEST"}
{"results": [{"address_components": [{"long_name": "Patna", "short_name": "Patna", "types": ["locality", "political"]}, {"long_name": "Patna", "short_name": "Patna", "types": ["administrative_area_level_2", "political"]}, {"long_name": "Bihar", "short_name": "BR", "types": ["administrative_area_level_1", "political"]}, {"long_name": "India", "short_name": "IN", "types": ["country", "political"]}], "formatted_address": "Patna, Bihar, India", "geometry": {"bounds": {"northeast": {"lat": 25.6564425, "lng": 85.2687289}, "southwest": {"lat": 25.5596324, "lng": 85.01735699999999}}, "location": {"lat": 25.5940947, "lng": 85.1375645}, "location_type": "APPROXIMATE", "viewport": {"northeast": {"lat": 25.6564425, "lng": 85.2687289}, "southwest": {"lat": 25.5596324, "lng": 85.01735699999999}}}, "place_id": "ChIJBU8txTeZ8jkRcLIH9gUOGoM", "types": ["locality", "political"]}], "status": "OK"}
{"error_message": "Invalid request. Missing the 'address', 'components', 'latlng' or 'place_id' parameter.", "results": [], "status": "INVALID_REQUEST"}
{"results": [{"address_components": [{"long_name": "Vadodara", "short_name": "Vadodara", "types": ["locality", "political"]}, {"long_name": "Vadodara", "short_name": "Vadodara", "types": ["administrative_area_level_2", "political"]}, {"long_name": "Gujarat", "short_name": "GJ", "types": ["administrative_area_level_1", "political"]}, {"long_name": "India", "short_name": "IN", "types": ["country", "political"]}], "formatted_address": "Vadodara, Gujarat, India", "geometry": {"bounds": {"northeast": {"lat": 22.4219466, "lng": 73.2730072}, "southwest": {"lat": 22.2222587, "lng": 73.0731653}}, "location": {"lat": 22.3071588, "lng": 73.1812187}, "location_type": "APPROXIMATE", "viewport": {"northeast": {"lat": 22.4219466, "lng": 73.2730072}, "southwest": {"lat": 22.2222587, "lng": 73.0731653}}}, "place_id": "ChIJq92jkavIXzkRuD9H4b_TOaw", "types": ["locality", "political"]}], "status": "OK"}
{"error_message": "Invalid request. Missing the 'address', 'components', 'latlng' or 'place_id' parameter.", "results": [], "status": "INVALID_REQUEST"}
{"results": [{"address_components": [{"long_name": "Ghaziabad", "short_name": "Ghaziabad", "types": ["locality", "political"]}, {"long_name": "Ghaziabad", "short_name": "Ghaziabad", "types": ["administrative_area_level_2", "political"]}, {"long_name": "Uttar Pradesh", "short_name": "UP", "types": ["administrative_area_level_1", "political"]}, {"long_name": "India", "short_name": "IN", "types": ["country", "political"]}], "formatted_address": "Ghaziabad, Uttar Pradesh, India", "geometry": {"bounds": {"northeast": {"lat": 28.7969614, "lng": 77.5562668}, "southwest": {"lat": 28.6023449, "lng": 77.23378989999999}}, "location": {"lat": 28.6691565, "lng": 77.45375779999999}, "location_type": "APPROXIMATE", "viewport": {"northeast": {"lat": 28.7969614, "lng": 77.5562668}, "southwest": {"lat": 28.6023449, "lng": 77.23378989999999}}}, "place_id": "ChIJ3w_FQbvxDDkRuph3atJv8OY", "types": ["locality", "political"]}], "status": "OK"}
{"error_message": "Invalid request. Missing the 'address', 'components', 'latlng' or 'place_id' parameter.", "results": [], "status": "INVALID_REQUEST"}
{"results": [{"address_components": [{"long_name": "Ludhiana", "short_name": "Ludhiana", "types": ["locality", "political"]}, {"long_name": "Ludhiana", "short_name": "Ludhiana", "types": ["administrative_area_level_2", "political"]}, {"long_name": "Punjab", "short_name": "PB", "types": ["administrative_area_level_1", "political"]}, {"long_name": "India", "short_name": "IN", "types": ["country", "political"]}], "formatted_address": "Ludhiana, Punjab, India", "geometry": {"bounds": {"northeast": {"lat": 30.9621175, "lng": 75.9538007}, "southwest": {"lat": 30.8385729, "lng": 75.7595458}}, "location": {"lat": 30.900965, "lng": 75.8572758}, "location_type": "APPROXIMATE", "viewport": {"northeast": {"lat": 30.9621175, "lng": 75.9538007}, "southwest": {"lat": 30.8385729, "lng": 75.7595458}}}, "place_id": "ChIJfVo0YnSDGjkREAbGjjQCEWg", "types": ["locality", "political"]}], "status": "OK"}
{"error_message": "Invalid request. Missing the 'address', 'components', 'latlng' or 'place_id' parameter.", "results": [], "status": "INVALID_REQUEST"}
{"results": [{"address_components": [{"long_name": "Coimbatore", "short_name": "Coimbatore", "types": ["locality", "political"]}, {"long_name": "Coimbatore", "short_name": "Coimbatore", "types": ["administrative_area_level_2", "political"]}, {"long_name": "Tamil Nadu", "short_name": "TN", "types": ["administrative_area_level_1", "political"]}, {"long_name": "India", "short_name": "IN", "types": ["country", "political"]}], "formatted_address": "Coimbatore, Tamil Nadu, India", "geometry": {"bounds": {"northeast": {"lat": 11.1166118, "lng": 77.07481589999999}, "southwest": {"lat": 10.9068074, "lng": 76.8596541}}, "location": {"lat": 11.0168445, "lng": 76.9558321}, "location_type": "APPROXIMATE", "viewport": {"northeast": {"lat": 11.1166118, "lng": 77.07481589999999}, "southwest": {"lat": 10.9068074, "lng": 76.8596541}}}, "place_id": "ChIJtRyXL69ZqDsRgtI-GB7IwS8", "types": ["locality", "political"]}], "status": "OK"}
{"error_message": "Invalid request. Missing the 'address', 'components', 'latlng' or 'place_id' parameter.", "results": [], "status": "INVALID_REQUEST"}
{"results": [{"address_components": [{"long_name": "Agra", "short_name": "Agra", "types": ["locality", "political"]}, {"long_name": "Agra", "short_name": "Agra", "types": ["administrative_area_level_2", "political"]}, {"long_name": "Uttar Pradesh", "short_name": "UP", "types": ["administrative_area_level_1", "political"]}, {"long_name": "India", "short_name": "IN", "types": ["country", "political"]}], "formatted_address": "Agra, Uttar Pradesh, India", "geometry": {"bounds": {"northeast": {"lat": 27.2544771, "lng": 78.0820657}, "southwest": {"lat": 27.0978719, "lng": 77.87796019999999}}, "location": {"lat": 27.1766701, "lng": 78.00807449999999}, "location_type": "APPROXIMATE", "viewport": {"northeast": {"lat": 27.2544771, "lng": 78.0820657}, "southwest": {"lat": 27.0978719, "lng": 77.87796019999999}}}, "place_id": "ChIJ2UEvfIUNdDkRQjtSqTjvSng", "types": ["locality", "political"]}], "status": "OK"}
{"error_message": "Invalid request. Missing the 'address', 'components', 'latlng' or 'place_id' parameter.", "results": [], "status": "INVALID_REQUEST"}
{"results": [{"address_components": [{"long_name": "Madurai", "short_name": "Madurai", "types": ["locality", "political"]}, {"long_name": "Madurai", "short_name": "Madurai", "types": ["administrative_area_level_2", "political"]}, {"long_name": "Tamil Nadu", "short_name": "TN", "types": ["administrative_area_level_1", "political"]}, {"long_name": "India", "short_name": "IN", "types": ["country", "political"]}], "formatted_address": "Madurai, Tamil Nadu, India", "geometry": {"bounds": {"northeast": {"lat": 9.9777629, "lng": 78.1746324}, "southwest": {"lat": 9.8575287, "lng": 78.0710149}}, "location": {"lat": 9.9252007, "lng": 78.1197754}, "location_type": "APPROXIMATE", "viewport": {"northeast": {"lat": 9.9777629, "lng": 78.1746324}, "southwest": {"lat": 9.8575287, "lng": 78.0710149}}}, "place_id": "ChIJM5YYsYLFADsRMzn2ZHJbldw", "types": ["locality", "political"]}], "status": "OK"}
{"error_message": "Invalid request. Missing the 'address', 'components', 'latlng' or 'place_id' parameter.", "results": [], "status": "INVALID_REQUEST"}
{"results": [{"address_components": [{"long_name": "Nashik", "short_name": "Nashik", "types": ["locality", "political"]}, {"long_name": "Nashik", "short_name": "Nashik", "types": ["administrative_area_level_2", "political"]}, {"long_name": "Maharashtra", "short_name": "MH", "types": ["administrative_area_level_1", "political"]}, {"long_name": "India", "short_name": "IN", "types": ["country", "political"]}], "formatted_address": "Nashik, Maharashtra, India", "geometry": {"bounds": {"northeast": {"lat": 20.071733, "lng": 73.91575809999999}, "southwest": {"lat": 19.9101931, "lng": 73.6912036}}, "location": {"lat": 19.9974533, "lng": 73.78980229999999}, "location_type": "APPROXIMATE", "viewport": {"northeast": {"lat": 20.071733, "lng": 73.91575809999999}, "southwest": {"lat": 19.9101931, "lng": 73.6912036}}}, "place_id": "ChIJsxSZsJDS3TsRXCEonV2EB8s", "types": ["locality", "political"]}], "status": "OK"}
{"error_message": "Invalid request. Missing the 'address', 'components', 'latlng' or 'place_id' parameter.", "results": [], "status": "INVALID_REQUEST"}
{"results": [{"address_components": [{"long_name": "Faridabad", "short_name": "Faridabad", "types": ["locality", "political"]}, {"long_name": "Faridabad", "short_name": "Faridabad", "types": ["administrative_area_level_2", "political"]}, {"long_name": "Haryana", "short_name": "HR", "types": ["administrative_area_level_1", "political"]}, {"long_name": "India", "short_name": "IN", "types": ["country", "political"]}], "formatted_address": "Faridabad, Haryana, India", "geometry": {"bounds": {"northeast": {"lat": 28.5137834, "lng": 77.38977129999999}, "southwest": {"lat": 28.2912872, "lng": 77.2483772}}, "location": {"lat": 28.4089123, "lng": 77.3177894}, "location_type": "APPROXIMATE", "viewport": {"northeast": {"lat": 28.5137834, "lng": 77.38977129999999}, "southwest": {"lat": 28.2912872, "lng": 77.2483772}}}, "place_id": "ChIJsSSk9RXcDDkR8uBQyHYF9eQ", "types": ["locality", "political"]}], "status": "OK"}
{"error_message": "Invalid request. Missing the 'address', 'components', 'latlng' or 'place_id' parameter.", "results": [], "status": "INVALID_REQUEST"}
{"results": [{"address_components": [{"long_name": "Meerut", "short_name": "Meerut", "types": ["locality", "political"]}, {"long_name": "Meerut", "short_name": "Meerut", "types": ["administrative_area_level_2", "political"]}, {"long_name": "Uttar Pradesh", "short_name": "UP", "types": ["administrative_area_level_1", "political"]}, {"long_name": "India", "short_name": "IN", "types": ["country", "political"]}], "formatted_address": "Meerut, Uttar Pradesh, India", "geometry": {"bounds": {"northeast": {"lat": 29.0726531, "lng": 77.7765083}, "southwest": {"lat": 28.9018713, "lng": 77.62141230000002}}, "location": {"lat": 28.9844618, "lng": 77.7064137}, "location_type": "APPROXIMATE", "viewport": {"northeast": {"lat": 29.0726531, "lng": 77.7765083}, "southwest": {"lat": 28.9018713, "lng": 77.62141230000002}}}, "place_id": "ChIJJWO2V_RkDDkRXr6mhzOo-kI", "types": ["locality", "political"]}], "status": "OK"}
{"error_message": "Invalid request. Missing the 'address', 'components', 'latlng' or 'place_id' parameter.", "results": [], "status": "INVALID_REQUEST"}
{"results": [{"address_components": [{"long_name": "Rajkot", "short_name": "Rajkot", "types": ["locality", "political"]}, {"long_name": "Rajkot", "short_name": "Rajkot", "types": ["administrative_area_level_2", "political"]}, {"long_name": "Gujarat", "short_name": "GJ", "types": ["administrative_area_level_1", "political"]}, {"long_name": "India", "short_name": "IN", "types": ["country", "political"]}], "formatted_address": "Rajkot, Gujarat, India", "geometry": {"bounds": {"northeast": {"lat": 22.3534892, "lng": 70.9481892}, "southwest": {"lat": 22.1934847, "lng": 70.69440349999999}}, "location": {"lat": 22.3038945, "lng": 70.80215989999999}, "location_type": "APPROXIMATE", "viewport": {"northeast": {"lat": 22.3534892, "lng": 70.9481892}, "southwest": {"lat": 22.1934847, "lng": 70.69440349999999}}}, "place_id": "ChIJD98cx4rJWTkRO62Tvs8V3XY", "types": ["locality", "political"]}], "status": "OK"}
{"error_message": "Invalid request. Missing the 'address', 'components', 'latlng' or 'place_id' parameter.", "results": [], "status": "INVALID_REQUEST"}
{"results": [{"address_components": [{"long_name": "Dombivli", "short_name": "Dombivli", "types": ["locality", "political"]}, {"long_name": "Thane", "short_name": "Thane", "types": ["administrative_area_level_2", "political"]}, {"long_name": "Maharashtra", "short_name": "MH", "types": ["administrative_area_level_1", "political"]}, {"long_name": "India", "short_name": "IN", "types": ["country", "political"]}], "formatted_address": "Dombivli, Maharashtra, India", "geometry": {"bounds": {"northeast": {"lat": 19.2405517, "lng": 73.13293329999999}, "southwest": {"lat": 19.1781159, "lng": 73.0662306}}, "location": {"lat": 19.2094006, "lng": 73.0939483}, "location_type": "APPROXIMATE", "viewport": {"northeast": {"lat": 19.2405517, "lng": 73.13293329999999}, "southwest": {"lat": 19.1781159, "lng": 73.0662306}}}, "place_id": "ChIJB4ct946V5zsRCAsobrlqv4Q", "types": ["locality", "political"]}], "status": "OK"}
{"error_message": "Invalid request. Missing the 'address', 'components', 'latlng' or 'place_id' parameter.", "results": [], "status": "INVALID_REQUEST"}
{"results": [{"address_components": [{"long_name": "Vasai", "short_name": "Vasai", "types": ["locality", "political"]}, {"long_name": "Thane", "short_name": "Thane", "types": ["administrative_area_level_2", "political"]}, {"long_name": "Maharashtra", "short_name": "MH", "types": ["administrative_area_level_1", "political"]}, {"long_name": "India", "short_name": "IN", "types": ["country", "political"]}], "formatted_address": "Vasai, Maharashtra, India", "geometry": {"bounds": {"northeast": {"lat": 19.4314471, "lng": 72.89737699999999}, "southwest": {"lat": 19.324994, "lng": 72.7565718}}, "location": {"lat": 19.3919275, "lng": 72.8397317}, "location_type": "APPROXIMATE", "viewport": {"northeast": {"lat": 19.4314471, "lng": 72.89737699999999}, "southwest": {"lat": 19.324994, "lng": 72.7565718}}}, "place_id": "ChIJe1jBa5Wu5zsRRVGqS6lTT4Y", "types": ["locality", "political"]}], "status": "OK"}
{"error_message": "Invalid request. Missing the 'address', 'components', 'latlng' or 'place_id' parameter.", "results": [], "status": "INVALID_REQUEST"}
{"results": [{"address_components": [{"long_name": "Varanasi", "short_name": "Varanasi", "types": ["locality", "political"]}, {"long_name": "Varanasi", "short_name": "Varanasi", "types": ["administrative_area_level_2", "political"]}, {"long_name": "Uttar Pradesh", "short_name": "UP", "types": ["administrative_area_level_1", "political"]}, {"long_name": "India", "short_name": "IN", "types": ["country", "political"]}], "formatted_address": "Varanasi, Uttar Pradesh, India", "geometry": {"bounds": {"northeast": {"lat": 25.395665, "lng": 83.0607605}, "southwest": {"lat": 25.2458603, "lng": 82.9214574}}, "location": {"lat": 25.3176452, "lng": 82.9739144}, "location_type": "APPROXIMATE", "viewport": {"northeast": {"lat": 25.395665, "lng": 83.0607605}, "southwest": {"lat": 25.2458603, "lng": 82.9214574}}}, "place_id": "ChIJTc_rb7ctjjkRtfA_hRAXE2g", "types": ["locality", "political"]}], "status": "OK"}
{"error_message": "Invalid request. Missing the 'address', 'components', 'latlng' or 'place_id' parameter.", "results": [], "status": "INVALID_REQUEST"}
{"results": [{"address_components": [{"long_name": "Srinagar", "short_name": "Srinagar", "types": ["locality", "political"]}], "formatted_address": "Srinagar", "geometry": {"bounds": {"northeast": {"lat": 34.204096, "lng": 74.8965268}, "southwest": {"lat": 34.009341, "lng": 74.7169835}}, "location": {"lat": 34.0836708, "lng": 74.7972825}, "location_type": "APPROXIMATE", "viewport": {"northeast": {"lat": 34.204096, "lng": 74.8965268}, "southwest": {"lat": 34.009341, "lng": 74.7169835}}}, "place_id": "ChIJ78XjhlaF4TgRxgXjwXxLJGY", "types": ["locality", "political"]}], "status": "OK"}
{"error_message": "Invalid request. Missing the 'address', 'components', 'latlng' or 'place_id' parameter.", "results": [], "status": "INVALID_REQUEST"}
{"results": [{"address_components": [{"long_name": "Aurangabad", "short_name": "Aurangabad", "types": ["locality", "political"]}, {"long_name": "Aurangabad", "short_name": "Aurangabad", "types": ["administrative_area_level_2", "political"]}, {"long_name": "Maharashtra", "short_name": "MH", "types": ["administrative_area_level_1", "political"]}, {"long_name": "India", "short_name": "IN", "types": ["country", "political"]}], "formatted_address": "Aurangabad, Maharashtra, India", "geometry": {"bounds": {"northeast": {"lat": 19.9365799, "lng": 75.4171408}, "southwest": {"lat": 19.8036126, "lng": 75.1932621}}, "location": {"lat": 19.8761653, "lng": 75.3433139}, "location_type": "APPROXIMATE", "viewport": {"northeast": {"lat": 19.9365799, "lng": 75.4171408}, "southwest": {"lat": 19.8036126, "lng": 75.1932621}}}, "place_id": "ChIJY7xpoxWY2zsRPqeiKYtTLXE", "types": ["locality", "political"]}], "status": "OK"}
{"error_message": "Invalid request. Missing the 'address', 'components', 'latlng' or 'place_id' parameter.", "results": [], "status": "INVALID_REQUEST"}
{"results": [{"address_components": [{"long_name": "Dhanbad", "short_name": "Dhanbad", "types": ["locality", "political"]}, {"long_name": "Dhanbad", "short_name": "Dhanbad", "types": ["administrative_area_level_2", "political"]}, {"long_name": "Jharkhand", "short_name": "JH", "types": ["administrative_area_level_1", "political"]}, {"long_name": "India", "short_name": "IN", "types": ["country", "political"]}], "formatted_address": "Dhanbad, Jharkhand, India", "geometry": {"bounds": {"northeast": {"lat": 23.854128, "lng": 86.5023994}, "southwest": {"lat": 23.7499772, "lng": 86.36610019999999}}, "location": {"lat": 23.7956531, "lng": 86.43038589999999}, "location_type": "APPROXIMATE", "viewport": {"northeast": {"lat": 23.854128, "lng": 86.5023994}, "southwest": {"lat": 23.7499772, "lng": 86.36610019999999}}}, "place_id": "ChIJbfzMBAij9jkR52T3hRseFfo", "types": ["locality", "political"]}], "status": "OK"}
{"error_message": "Invalid request. Missing the 'address', 'components', 'latlng' or 'place_id' parameter.", "results": [], "status": "INVALID_REQUEST"}
{"results": [{"address_components": [{"long_name": "Amritsar", "short_name": "Amritsar", "types": ["locality", "political"]}, {"long_name": "Amritsar", "short_name": "Amritsar", "types": ["administrative_area_level_2", "political"]}, {"long_name": "Punjab", "short_name": "PB", "types": ["administrative_area_level_1", "political"]}, {"long_name": "India", "short_name": "IN", "types": ["country", "political"]}], "formatted_address": "Amritsar, Punjab, India", "geometry": {"bounds": {"northeast": {"lat": 31.6897959, "lng": 74.965961}, "southwest": {"lat": 31.5772924, "lng": 74.7742796}}, "location": {"lat": 31.6339793, "lng": 74.8722642}, "location_type": "APPROXIMATE", "viewport": {"northeast": {"lat": 31.6897959, "lng": 74.965961}, "southwest": {"lat": 31.5772924, "lng": 74.7742796}}}, "place_id": "ChIJVXOeVqpkGTkRfe-E7ltgou4", "types": ["locality", "political"]}], "status": "OK"}
{"error_message": "Invalid request. Missing the 'address', 'components', 'latlng' or 'place_id' parameter.", "results": [], "status": "INVALID_REQUEST"}
{"results": [{"address_components": [{"long_name": "Navi Mumbai", "short_name": "Navi Mumbai", "types": ["locality", "political"]}, {"long_name": "Thane", "short_name": "Thane", "types": ["administrative_area_level_2", "political"]}, {"long_name": "Maharashtra", "short_name": "MH", "types": ["administrative_area_level_1", "political"]}, {"long_name": "India", "short_name": "IN", "types": ["country", "political"]}], "formatted_address": "Navi Mumbai, Maharashtra, India", "geometry": {"bounds": {"northeast": {"lat": 19.1861914, "lng": 73.1620789}, "southwest": {"lat": 18.8465126, "lng": 72.9042434}}, "location": {"lat": 19.0330488, "lng": 73.0296625}, "location_type": "APPROXIMATE", "viewport": {"northeast": {"lat": 19.1861914, "lng": 73.1620789}, "southwest": {"lat": 18.8465126, "lng": 72.9042434}}}, "place_id": "ChIJrRMfuPC55zsRafiFEWj3Ejw", "types": ["locality", "political"]}], "status": "OK"}
{"error_message": "Invalid request. Missing the 'address', 'components', 'latlng' or 'place_id' parameter.", "results": [], "status": "INVALID_REQUEST"}
{"results": [{"address_components": [{"long_name": "Allahabad", "short_name": "Allahabad", "types": ["locality", "political"]}, {"long_name": "Allahabad", "short_name": "Allahabad", "types": ["administrative_area_level_2", "political"]}, {"long_name": "Uttar Pradesh", "short_name": "UP", "types": ["administrative_area_level_1", "political"]}, {"long_name": "India", "short_name": "IN", "types": ["country", "political"]}], "formatted_address": "Allahabad, Uttar Pradesh, India", "geometry": {"bounds": {"northeast": {"lat": 25.5102212, "lng": 81.93672169999999}, "southwest": {"lat": 25.2943063, "lng": 81.6664474}}, "location": {"lat": 25.4358011, "lng": 81.846311}, "location_type": "APPROXIMATE", "viewport": {"northeast": {"lat": 25.5102212, "lng": 81.93672169999999}, "southwest": {"lat": 25.2943063, "lng": 81.6664474}}}, "place_id": "ChIJn9QLssk0hTkRGgTUaoU3Igo", "types": ["locality", "political"]}], "status": "OK"}
{"error_message": "Invalid request. Missing the 'address', 'components', 'latlng' or 'place_id' parameter.", "results": [], "status": "INVALID_REQUEST"}
{"results": [{"address_components": [{"long_name": "Ranchi", "short_name": "Ranchi", "types": ["locality", "political"]}, {"long_name": "Ranchi", "short_name": "Ranchi", "types": ["administrative_area_level_2", "political"]}, {"long_name": "Jharkhand", "short_name": "JH", "types": ["administrative_area_level_1", "political"]}, {"long_name": "India", "short_name": "IN", "types": ["country", "political"]}], "formatted_address": "Ranchi, Jharkhand, India", "geometry": {"bounds": {"northeast": {"lat": 23.4503333, "lng": 85.4368973}, "southwest": {"lat": 23.2360763, "lng": 85.2057552}}, "location": {"lat": 23.3440997, "lng": 85.309562}, "location_type": "APPROXIMATE", "viewport": {"northeast": {"lat": 23.4503333, "lng": 85.4368973}, "southwest": {"lat": 23.2360763, "lng": 85.2057552}}}, "place_id": "ChIJ3bddqgTh9DkRPvSZaJ3UCdw", "types": ["locality", "political"]}], "status": "OK"}
{"error_message": "Invalid request. Missing the 'address', 'components', 'latlng' or 'place_id' parameter.", "results": [], "status": "INVALID_REQUEST"}
{"results": [{"address_components": [{"long_name": "Howrah", "short_name": "Howrah", "types": ["locality", "political"]}, {"long_name": "Howrah", "short_name": "Howrah", "types": ["administrative_area_level_2", "political"]}, {"long_name": "West Bengal", "short_name": "WB", "types": ["administrative_area_level_1", "political"]}, {"long_name": "India", "short_name": "IN", "types": ["country", "political"]}], "formatted_address": "Howrah, West Bengal, India", "geometry": {"bounds": {"northeast": {"lat": 22.6784507, "lng": 88.36432459999999}, "southwest": {"lat": 22.4351483, "lng": 87.9875708}}, "location": {"lat": 22.5957689, "lng": 88.26363940000002}, "location_type": "APPROXIMATE", "viewport": {"northeast": {"lat": 22.6784507, "lng": 88.36432459999999}, "southwest": {"lat": 22.4351483, "lng": 87.9875708}}}, "place_id": "ChIJX8oAvkmC-DkR6NZLL8SWVD8", "types": ["locality", "political"]}], "status": "OK"}
{"results": [{"address_components": [{"long_name": "Jabalpur", "short_name": "Jabalpur", "types": ["locality", "political"]}, {"long_name": "Jabalpur", "short_name": "Jabalpur", "types": ["administrative_area_level_2", "political"]}, {"long_name": "Madhya Pradesh", "short_name": "MP", "types": ["administrative_area_level_1", "political"]}, {"long_name": "India", "short_name": "IN", "types": ["country", "political"]}], "formatted_address": "Jabalpur, Madhya Pradesh, India", "geometry": {"bounds": {"northeast": {"lat": 23.246354, "lng": 80.0800323}, "southwest": {"lat": 23.1050362, "lng": 79.8574735}}, "location": {"lat": 23.181467, "lng": 79.9864071}, "location_type": "APPROXIMATE", "viewport": {"northeast": {"lat": 23.246354, "lng": 80.0800323}, "southwest": {"lat": 23.1050362, "lng": 79.8574735}}}, "place_id": "ChIJfam2DxqugTkRueNDvBYGAkQ", "types": ["locality", "political"]}], "status": "OK"}
{"error_message": "Invalid request. Missing the 'address', 'components', 'latlng' or 'place_id' parameter.", "results": [], "status": "INVALID_REQUEST"}
{"results": [{"address_components": [{"long_name": "Gwalior", "short_name": "Gwalior", "types": ["locality", "political"]}, {"long_name": "Gwalior", "short_name": "Gwalior", "types": ["administrative_area_level_2", "political"]}, {"long_name": "Madhya Pradesh", "short_name": "MP", "types": ["administrative_area_level_1", "political"]}, {"long_name": "India", "short_name": "IN", "types": ["country", "political"]}], "formatted_address": "Gwalior, Madhya Pradesh, India", "geometry": {"bounds": {"northeast": {"lat": 26.3221909, "lng": 78.2716657}, "southwest": {"lat": 26.1061208, "lng": 78.1101322}}, "location": {"lat": 26.2182871, "lng": 78.18283079999999}, "location_type": "APPROXIMATE", "viewport": {"northeast": {"lat": 26.3221909, "lng": 78.2716657}, "southwest": {"lat": 26.1061208, "lng": 78.1101322}}}, "place_id": "ChIJ-5EiedHFdjkR3zq8ZW21T_8", "types": ["locality", "political"]}], "status": "OK"}
{"error_message": "Invalid request. Missing the 'address', 'components', 'latlng' or 'place_id' parameter.", "results": [], "status": "INVALID_REQUEST"}
{"results": [{"address_components": [{"long_name": "Vijayawada", "short_name": "Vijayawada", "types": ["locality", "political"]}, {"long_name": "Krishna", "short_name": "Krishna", "types": ["administrative_area_level_2", "political"]}, {"long_name": "Andhra Pradesh", "short_name": "AP", "types": ["administrative_area_level_1", "political"]}, {"long_name": "India", "short_name": "IN", "types": ["country", "political"]}], "formatted_address": "Vijayawada, Andhra Pradesh, India", "geometry": {"bounds": {"northeast": {"lat": 16.5639733, "lng": 80.7316657}, "southwest": {"lat": 16.4563563, "lng": 80.55725679999999}}, "location": {"lat": 16.5061743, "lng": 80.6480153}, "location_type": "APPROXIMATE", "viewport": {"northeast": {"lat": 16.5639733, "lng": 80.7316657}, "southwest": {"lat": 16.4563563, "lng": 80.55725679999999}}}, "place_id": "ChIJS5QtSPnvNToRZQJKq4R-m5M", "types": ["locality", "political"]}], "status": "OK"}
{"error_message": "Invalid request. Missing the 'address', 'components', 'latlng' or 'place_id' parameter.", "results": [], "status": "INVALID_REQUEST"}
{"results": [{"address_components": [{"long_name": "Jodhpur", "short_name": "Jodhpur", "types": ["locality", "political"]}, {"long_name": "Jodhpur", "short_name": "Jodhpur", "types": ["administrative_area_level_2", "political"]}, {"long_name": "Rajasthan", "short_name": "RJ", "types": ["administrative_area_level_1", "political"]}, {"long_name": "India", "short_name": "IN", "types": ["country", "political"]}], "formatted_address": "Jodhpur, Rajasthan, India", "geometry": {"bounds": {"northeast": {"lat": 26.3572277, "lng": 73.1368446}, "southwest": {"lat": 26.1834778, "lng": 72.9242419}}, "location": {"lat": 26.2389469, "lng": 73.02430939999999}, "location_type": "APPROXIMATE", "viewport": {"northeast": {"lat": 26.3572277, "lng": 73.1368446}, "southwest": {"lat": 26.1834778, "lng": 72.9242419}}}, "place_id": "ChIJucwGqk6MQTkRuKvhClvqFIE", "types": ["locality", "political"]}], "status": "OK"}
{"error_message": "Invalid request. Missing the 'address', 'components', 'latlng' or 'place_id' parameter.", "results": [], "status": "INVALID_REQUEST"}
{"results": [{"address_components": [{"long_name": "Raipur", "short_name": "Raipur", "types": ["locality", "political"]}, {"long_name": "Raipur", "short_name": "Raipur", "types": ["administrative_area_level_2", "political"]}, {"long_name": "Chhattisgarh", "short_name": "CT", "types": ["administrative_area_level_1", "political"]}, {"long_name": "India", "short_name": "IN", "types": ["country", "political"]}], "formatted_address": "Raipur, Chhattisgarh, India", "geometry": {"bounds": {"northeast": {"lat": 21.3341527, "lng": 81.698915}, "southwest": {"lat": 21.1896584, "lng": 81.5392316}}, "location": {"lat": 21.2513844, "lng": 81.62964130000002}, "location_type": "APPROXIMATE", "viewport": {"northeast": {"lat": 21.3341527, "lng": 81.698915}, "southwest": {"lat": 21.1896584, "lng": 81.5392316}}}, "place_id": "ChIJKYLiO6LdKDoRQOL5TyDhPhY", "types": ["locality", "political"]}], "status": "OK"}
{"error_message": "Invalid request. Missing the 'address', 'components', 'latlng' or 'place_id' parameter.", "results": [], "status": "INVALID_REQUEST"}
{"results": [{"address_components": [{"long_name": "Kota", "short_name": "Kota", "types": ["locality", "political"]}, {"long_name": "Kota", "short_name": "Kota", "types": ["administrative_area_level_2", "political"]}, {"long_name": "Rajasthan", "short_name": "RJ", "types": ["administrative_area_level_1", "political"]}, {"long_name": "India", "short_name": "IN", "types": ["country", "political"]}], "formatted_address": "Kota, Rajasthan, India", "geometry": {"bounds": {"northeast": {"lat": 25.6836127, "lng": 76.352234}, "southwest": {"lat": 25.096559, "lng": 75.76982989999999}}, "location": {"lat": 25.2138156, "lng": 75.8647527}, "location_type": "APPROXIMATE", "viewport": {"northeast": {"lat": 25.6836127, "lng": 76.352234}, "southwest": {"lat": 25.096559, "lng": 75.76982989999999}}}, "place_id": "ChIJTbQbxDCbbzkRiFUEADIQXF8", "types": ["locality", "political"]}, {"address_components": [{"long_name": "Kota", "short_name": "Kota", "types": ["administrative_area_level_2", "political"]}, {"long_name": "Rajasthan", "short_name": "RJ", "types": ["administrative_area_level_1", "political"]}, {"long_name": "India", "short_name": "IN", "types": ["country", "political"]}], "formatted_address": "Kota, Rajasthan, India", "geometry": {"bounds": {"northeast": {"lat": 25.83972, "lng": 76.5974399}, "southwest": {"lat": 24.53969, "lng": 75.61407}}, "location": {"lat": 25.0869886, "lng": 75.9927652}, "location_type": "APPROXIMATE", "viewport": {"northeast": {"lat": 25.83972, "lng": 76.5974399}, "southwest": {"lat": 24.53969, "lng": 75.61407}}}, "place_id": "ChIJh545xzCbbzkRD49WC5Cp2cU", "types": ["administrative_area_level_2", "political"]}], "status": "OK"}
{"error_message": "Invalid request. Missing the 'address', 'components', 'latlng' or 'place_id' parameter.", "results": [], "status": "INVALID_REQUEST"}
{"results": [{"address_components": [{"long_name": "Guwahati", "short_name": "Guwahati", "types": ["locality", "political"]}, {"long_name": "Kamrup", "short_name": "Kamrup", "types": ["administrative_area_level_2", "political"]}, {"long_name": "Assam", "short_name": "AS", "types": ["administrative_area_level_1", "political"]}, {"long_name": "India", "short_name": "IN", "types": ["country", "political"]}], "formatted_address": "Guwahati, Assam, India", "geometry": {"bounds": {"northeast": {"lat": 26.2172862, "lng": 91.87591959999999}, "southwest": {"lat": 26.068811, "lng": 91.5298462}}, "location": {"lat": 26.1445169, "lng": 91.7362365}, "location_type": "APPROXIMATE", "viewport": {"northeast": {"lat": 26.2172862, "lng": 91.87591959999999}, "southwest": {"lat": 26.068811, "lng": 91.5298462}}}, "place_id": "ChIJ_zORfyhaWjcRMt5rQzITvSs", "types": ["locality", "political"]}], "status": "OK"}
{"error_message": "Invalid request. Missing the 'address', 'components', 'latlng' or 'place_id' parameter.", "results": [], "status": "INVALID_REQUEST"}
{"results": [{"address_components": [{"long_name": "Chandigarh", "short_name": "Chandigarh", "types": ["locality", "political"]}, {"long_name": "Chandigarh", "short_name": "Chandigarh", "types": ["administrative_area_level_2", "political"]}, {"long_name": "Chandigarh", "short_name": "CH", "types": ["administrative_area_level_1", "political"]}, {"long_name": "India", "short_name": "IN", "types": ["country", "political"]}], "formatted_address": "Chandigarh, India", "geometry": {"bounds": {"northeast": {"lat": 30.800142, "lng": 76.8362439}, "southwest": {"lat": 30.6700209, "lng": 76.690814}}, "location": {"lat": 30.7333148, "lng": 76.7794179}, "location_type": "APPROXIMATE", "viewport": {"northeast": {"lat": 30.800142, "lng": 76.8362439}, "southwest": {"lat": 30.6700209, "lng": 76.690814}}}, "place_id": "ChIJa8lu5gvtDzkR_hlzUvln_6U", "types": ["locality", "political"]}], "status": "OK"}
{"error_message": "Invalid request. Missing the 'address', 'components', 'latlng' or 'place_id' parameter.", "results": [], "status": "INVALID_REQUEST"}
{"results": [{"address_components": [{"long_name": "Solapur", "short_name": "Solapur", "types": ["locality", "political"]}, {"long_name": "Solapur", "short_name": "Solapur", "types": ["administrative_area_level_2", "political"]}, {"long_name": "Maharashtra", "short_name": "MH", "types": ["administrative_area_level_1", "political"]}, {"long_name": "India", "short_name": "IN", "types": ["country", "political"]}], "formatted_address": "Solapur, Maharashtra, India", "geometry": {"bounds": {"northeast": {"lat": 17.7227221, "lng": 75.96410759999999}, "southwest": {"lat": 17.6002165, "lng": 75.873127}}, "location": {"lat": 17.6599188, "lng": 75.9063906}, "location_type": "APPROXIMATE", "viewport": {"northeast": {"lat": 17.7227221, "lng": 75.96410759999999}, "southwest": {"lat": 17.6002165, "lng": 75.873127}}}, "place_id": "ChIJ1cVKtYLQxTsR0BA3yOadcTw", "types": ["locality", "political"]}], "status": "OK"}
{"error_message": "Invalid request. Missing the 'address', 'components', 'latlng' or 'place_id' parameter.", "results": [], "status": "INVALID_REQUEST"}
{"results": [{"address_components": [{"long_name": "Hubballi", "short_name": "Hubballi", "types": ["locality", "political"]}, {"long_name": "Dharwad", "short_name": "Dharwad", "types": ["administrative_area_level_2", "political"]}, {"long_name": "Karnataka", "short_name": "KA", "types": ["administrative_area_level_1", "political"]}, {"long_name": "India", "short_name": "IN", "types": ["country", "political"]}], "formatted_address": "Hubballi, Karnataka, India", "geometry": {"bounds": {"northeast": {"lat": 15.4155393, "lng": 75.1921463}, "southwest": {"lat": 15.313658, "lng": 75.02614969999999}}, "location": {"lat": 15.3647083, "lng": 75.1239547}, "location_type": "APPROXIMATE", "viewport": {"northeast": {"lat": 15.4155393, "lng": 75.1921463}, "southwest": {"lat": 15.313658, "lng": 75.02614969999999}}}, "place_id": "ChIJFwsJotPWuDsRlzMRB-ID6Ao", "types": ["locality", "political"]}], "status": "OK"}
{"error_message": "Invalid request. Missing the 'address', 'components', 'latlng' or 'place_id' parameter.", "results": [], "status": "INVALID_REQUEST"}
{"results": [{"address_components": [{"long_name": "Tiruchirappalli", "short_name": "Tiruchirappalli", "types": ["locality", "political"]}, {"long_name": "Tiruchirappalli", "short_name": "Tiruchirappalli", "types": ["administrative_area_level_2", "political"]}, {"long_name": "Tamil Nadu", "short_name": "TN", "types": ["administrative_area_level_1", "political"]}, {"long_name": "India", "short_name": "IN", "types": ["country", "political"]}], "formatted_address": "Tiruchirappalli, Tamil Nadu, India", "geometry": {"bounds": {"northeast": {"lat": 10.8953451, "lng": 78.76229529999999}, "southwest": {"lat": 10.7363442, "lng": 78.6157607}}, "location": {"lat": 10.7904833, "lng": 78.7046725}, "location_type": "APPROXIMATE", "viewport": {"northeast": {"lat": 10.8953451, "lng": 78.76229529999999}, "southwest": {"lat": 10.7363442, "lng": 78.6157607}}}, "place_id": "ChIJrc2u8g_1qjsRpq677Tss4G0", "types": ["locality", "political"]}], "status": "OK"}
{"error_message": "Invalid request. Missing the 'address', 'components', 'latlng' or 'place_id' parameter.", "results": [], "status": "INVALID_REQUEST"}
{"results": [{"address_components": [{"long_name": "Tiruppur", "short_name": "Tiruppur", "types": ["locality", "political"]}, {"long_name": "Tiruppur", "short_name": "Tiruppur", "types": ["administrative_area_level_2", "political"]}, {"long_name": "Tamil Nadu", "short_name": "TN", "types": ["administrative_area_level_1", "political"]}, {"long_name": "India", "short_name": "IN", "types": ["country", "political"]}], "formatted_address": "Tiruppur, Tamil Nadu, India", "geometry": {"bounds": {"northeast": {"lat": 11.1746969, "lng": 77.4365758}, "southwest": {"lat": 11.0424676, "lng": 77.29105000000001}}, "location": {"lat": 11.1085242, "lng": 77.3410656}, "location_type": "APPROXIMATE", "viewport": {"northeast": {"lat": 11.1746969, "lng": 77.4365758}, "southwest": {"lat": 11.0424676, "lng": 77.29105000000001}}}, "place_id": "ChIJuXVNQrAHqTsRhxapmBZVUEc", "types": ["locality", "political"]}], "status": "OK"}
{"error_message": "Invalid request. Missing the 'address', 'components', 'latlng' or 'place_id' parameter.", "results": [], "status": "INVALID_REQUEST"}
{"results": [{"address_components": [{"long_name": "Moradabad", "short_name": "Moradabad", "types": ["locality", "political"]}, {"long_name": "Moradabad", "short_name": "Moradabad", "types": ["administrative_area_level_2", "political"]}, {"long_name": "Uttar Pradesh", "short_name": "UP", "types": ["administrative_area_level_1", "political"]}, {"long_name": "India", "short_name": "IN", "types": ["country", "political"]}], "formatted_address": "Moradabad, Uttar Pradesh, India", "geometry": {"bounds": {"northeast": {"lat": 28.90179609999999, "lng": 78.8457012}, "southwest": {"lat": 28.7845108, "lng": 78.6894034}}, "location": {"lat": 28.8386481, "lng": 78.7733286}, "location_type": "APPROXIMATE", "viewport": {"northeast": {"lat": 28.90179609999999, "lng": 78.8457012}, "southwest": {"lat": 28.7845108, "lng": 78.6894034}}}, "place_id": "ChIJyUZWL-r7CjkR25hT6eR8ybg", "types": ["locality", "political"]}], "status": "OK"}
{"error_message": "Invalid request. Missing the 'address', 'components', 'latlng' or 'place_id' parameter.", "results": [], "status": "INVALID_REQUEST"}
{"results": [{"address_components": [{"long_name": "Mysuru", "short_name": "Mysuru", "types": ["locality", "political"]}, {"long_name": "Mysuru", "short_name": "Mysuru", "types": ["administrative_area_level_2", "political"]}, {"long_name": "Karnataka", "short_name": "KA", "types": ["administrative_area_level_1", "political"]}, {"long_name": "India", "short_name": "IN", "types": ["country", "political"]}], "formatted_address": "Mysuru, Karnataka, India", "geometry": {"bounds": {"northeast": {"lat": 12.3744611, "lng": 76.7110062}, "southwest": {"lat": 12.2468304, "lng": 76.5603734}}, "location": {"lat": 12.2958104, "lng": 76.6393805}, "location_type": "APPROXIMATE", "viewport": {"northeast": {"lat": 12.3744611, "lng": 76.7110062}, "southwest": {"lat": 12.2468304, "lng": 76.5603734}}}, "place_id": "ChIJ-S5XHThwrzsRbTn4wOjsiSs", "types": ["locality", "political"]}], "status": "OK"}
{"error_message": "Invalid request. Missing the 'address', 'components', 'latlng' or 'place_id' parameter.", "results": [], "status": "INVALID_REQUEST"}
{"results": [{"address_components": [{"long_name": "Bareilly", "short_name": "Bareilly", "types": ["locality", "political"]}, {"long_name": "Bareilly", "short_name": "Bareilly", "types": ["administrative_area_level_2", "political"]}, {"long_name": "Uttar Pradesh", "short_name": "UP", "types": ["administrative_area_level_1", "political"]}, {"long_name": "India", "short_name": "IN", "types": ["country", "political"]}], "formatted_address": "Bareilly, Uttar Pradesh, India", "geometry": {"bounds": {"northeast": {"lat": 28.4418827, "lng": 79.48093410000001}, "southwest": {"lat": 28.3102749, "lng": 79.3629455}}, "location": {"lat": 28.3670355, "lng": 79.4304381}, "location_type": "APPROXIMATE", "viewport": {"northeast": {"lat": 28.4418827, "lng": 79.48093410000001}, "southwest": {"lat": 28.3102749, "lng": 79.3629455}}}, "place_id": "ChIJjZkCTTMHoDkRf-ge80zUuQU", "types": ["locality", "political"]}], "status": "OK"}
{"error_message": "Invalid request. Missing the 'address', 'components', 'latlng' or 'place_id' parameter.", "results": [], "status": "INVALID_REQUEST"}
{"results": [{"address_components": [{"long_name": "Gurugram", "short_name": "Gurugram", "types": ["locality", "political"]}, {"long_name": "Gurgaon", "short_name": "Gurgaon", "types": ["administrative_area_level_2", "political"]}, {"long_name": "Haryana", "short_name": "HR", "types": ["administrative_area_level_1", "political"]}, {"long_name": "India", "short_name": "IN", "types": ["country", "political"]}], "formatted_address": "Gurugram, Haryana, India", "geometry": {"bounds": {"northeast": {"lat": 28.5458783, "lng": 77.1226452}, "southwest": {"lat": 28.303795, "lng": 76.85691829999999}}, "location": {"lat": 28.4594965, "lng": 77.0266383}, "location_type": "APPROXIMATE", "viewport": {"northeast": {"lat": 28.5458783, "lng": 77.1226452}, "southwest": {"lat": 28.303795, "lng": 76.85691829999999}}}, "place_id": "ChIJWYjjgtUZDTkRHkvG5ehfzwI", "types": ["locality", "political"]}], "status": "OK"}
{"error_message": "Invalid request. Missing the 'address', 'components', 'latlng' or 'place_id' parameter.", "results": [], "status": "INVALID_REQUEST"}
{"results": [{"address_components": [{"long_name": "Aligarh", "short_name": "Aligarh", "types": ["locality", "political"]}, {"long_name": "Aligarh", "short_name": "Aligarh", "types": ["administrative_area_level_2", "political"]}, {"long_name": "Uttar Pradesh", "short_name": "UP", "types": ["administrative_area_level_1", "political"]}, {"long_name": "India", "short_name": "IN", "types": ["country", "political"]}], "formatted_address": "Aligarh, Uttar Pradesh, India", "geometry": {"bounds": {"northeast": {"lat": 27.9674114, "lng": 78.1548885}, "southwest": {"lat": 27.8447871, "lng": 78.0224686}}, "location": {"lat": 27.8973944, "lng": 78.0880129}, "location_type": "APPROXIMATE", "viewport": {"northeast": {"lat": 27.9674114, "lng": 78.1548885}, "southwest": {"lat": 27.8447871, "lng": 78.0224686}}}, "place_id": "ChIJi5xFhoakdDkREzYybSdn2ZU", "types": ["locality", "political"]}, {"address_components": [{"long_name": "Aligarh", "short_name": "Aligarh", "types": ["administrative_area_level_2", "political"]}, {"long_name": "Uttar Pradesh", "short_name": "UP", "types": ["administrative_area_level_1", "political"]}, {"long_name": "India", "short_name": "IN", "types": ["country", "political"]}], "formatted_address": "Aligarh, Uttar Pradesh, India", "geometry": {"bounds": {"northeast": {"lat": 28.1796199, "lng": 78.61327}, "southwest": {"lat": 27.5748401, "lng": 77.47756}}, "location": {"lat": 27.8841999, "lng": 78.2020387}, "location_type": "APPROXIMATE", "viewport": {"northeast": {"lat": 28.1796199, "lng": 78.61327}, "southwest": {"lat": 27.5748401, "lng": 77.47756}}}, "place_id": "ChIJj7LCHYukdDkRu-2l2hQf3Kw", "types": ["administrative_area_level_2", "political"]}], "status": "OK"}
{"error_message": "Invalid request. Missing the 'address', 'components', 'latlng' or 'place_id' parameter.", "results": [], "status": "INVALID_REQUEST"}
{"results": [{"address_components": [{"long_name": "Jalandhar", "short_name": "Jalandhar", "types": ["locality", "political"]}, {"long_name": "Jalandhar", "short_name": "Jalandhar", "types": ["administrative_area_level_2", "political"]}, {"long_name": "Punjab", "short_name": "PB", "types": ["administrative_area_level_1", "political"]}, {"long_name": "India", "short_name": "IN", "types": ["country", "political"]}], "formatted_address": "Jalandhar, Punjab, India", "geometry": {"bounds": {"northeast": {"lat": 31.3894723, "lng": 75.6602071}, "southwest": {"lat": 31.2553232, "lng": 75.4866314}}, "location": {"lat": 31.3260152, "lng": 75.57618289999999}, "location_type": "APPROXIMATE", "viewport": {"northeast": {"lat": 31.3894723, "lng": 75.6602071}, "southwest": {"lat": 31.2553232, "lng": 75.4866314}}}, "place_id": "ChIJkeupR1daGjkRuLSlWsA0S8c", "types": ["locality", "political"]}], "status": "OK"}
{"error_message": "Invalid request. Missing the 'address', 'components', 'latlng' or 'place_id' parameter.", "results": [], "status": "INVALID_REQUEST"}
{"results": [{"address_components": [{"long_name": "Bhubaneswar", "short_name": "Bhubaneswar", "types": ["locality", "political"]}, {"long_name": "Khordha", "short_name": "Khordha", "types": ["administrative_area_level_2", "political"]}, {"long_name": "Odisha", "short_name": "OD", "types": ["administrative_area_level_1", "political"]}, {"long_name": "India", "short_name": "IN", "types": ["country", "political"]}], "formatted_address": "Bhubaneswar, Odisha, India", "geometry": {"bounds": {"northeast": {"lat": 20.4093164, "lng": 85.9028721}, "southwest": {"lat": 20.1924519, "lng": 85.7380342}}, "location": {"lat": 20.2960587, "lng": 85.8245398}, "location_type": "APPROXIMATE", "viewport": {"northeast": {"lat": 20.4093164, "lng": 85.9028721}, "southwest": {"lat": 20.1924519, "lng": 85.7380342}}}, "place_id": "ChIJpQoX1dIJGToRqD-zaCsOWPw", "types": ["locality", "political"]}], "status": "OK"}
{"error_message": "Invalid request. Missing the 'address', 'components', 'latlng' or 'place_id' parameter.", "results": [], "status": "INVALID_REQUEST"}
{"results": [{"address_components": [{"long_name": "Salem", "short_name": "Salem", "types": ["locality", "political"]}, {"long_name": "Essex County", "short_name": "Essex County", "types": ["administrative_area_level_2", "political"]}, {"long_name": "Massachusetts", "short_name": "MA", "types": ["administrative_area_level_1", "political"]}, {"long_name": "United States", "short_name": "US", "types": ["country", "political"]}], "formatted_address": "Salem, MA, USA", "geometry": {"bounds": {"northeast": {"lat": 42.5468359, "lng": -70.743567}, "southwest": {"lat": 42.484355, "lng": -70.95089999999999}}, "location": {"lat": 42.51954, "lng": -70.8967155}, "location_type": "APPROXIMATE", "viewport": {"northeast": {"lat": 42.5468359, "lng": -70.743567}, "southwest": {"lat": 42.484355, "lng": -70.95089999999999}}}, "place_id": "ChIJt1b4amRp44kRRVmlpaK44IE", "types": ["locality", "political"]}], "status": "OK"}
{"error_message": "Invalid request. Missing the 'address', 'components', 'latlng' or 'place_id' parameter.", "results": [], "status": "INVALID_REQUEST"}
{"results": [{"address_components": [{"long_name": "Mira Bhayandar", "short_name": "Mira Bhayandar", "types": ["locality", "political"]}, {"long_name": "Thane", "short_name": "Thane", "types": ["administrative_area_level_2", "political"]}, {"long_name": "Maharashtra", "short_name": "MH", "types": ["administrative_area_level_1", "political"]}, {"long_name": "India", "short_name": "IN", "types": ["country", "political"]}], "formatted_address": "Mira Bhayandar, Maharashtra, India", "geometry": {"bounds": {"northeast": {"lat": 19.3191198, "lng": 72.9380942}, "southwest": {"lat": 19.2376845, "lng": 72.77794349999999}}, "location": {"lat": 19.2952325, "lng": 72.8543897}, "location_type": "APPROXIMATE", "viewport": {"northeast": {"lat": 19.3191198, "lng": 72.9380942}, "southwest": {"lat": 19.2376845, "lng": 72.77794349999999}}}, "place_id": "ChIJ8crPMVmw5zsR8bxJT-hGfXQ", "types": ["locality", "political"]}], "status": "OK"}
{"error_message": "Invalid request. Missing the 'address', 'components', 'latlng' or 'place_id' parameter.", "results": [], "status": "INVALID_REQUEST"}
{"results": [{"address_components": [{"long_name": "Warangal", "short_name": "Warangal", "types": ["locality", "political"]}, {"long_name": "Warangal", "short_name": "Warangal", "types": ["administrative_area_level_2", "political"]}, {"long_name": "Telangana", "short_name": "Telangana", "types": ["administrative_area_level_1", "political"]}, {"long_name": "India", "short_name": "IN", "types": ["country", "political"]}], "formatted_address": "Warangal, Telangana, India", "geometry": {"bounds": {"northeast": {"lat": 18.0169363, "lng": 79.65225219999999}, "southwest": {"lat": 17.8993616, "lng": 79.5561218}}, "location": {"lat": 17.9689008, "lng": 79.59405439999999}, "location_type": "APPROXIMATE", "viewport": {"northeast": {"lat": 18.0169363, "lng": 79.65225219999999}, "southwest": {"lat": 17.8993616, "lng": 79.5561218}}}, "place_id": "ChIJ50te1wtFMzoRN8F7J5yQBpM", "types": ["locality", "political"]}], "status": "OK"}
{"error_message": "Invalid request. Missing the 'address', 'components', 'latlng' or 'place_id' parameter.", "results": [], "status": "INVALID_REQUEST"}
{"results": [{"address_components": [{"long_name": "Thiruvananthapuram", "short_name": "TVM", "types": ["locality", "political"]}, {"long_name": "Thiruvananthapuram", "short_name": "TVM", "types": ["administrative_area_level_2", "political"]}, {"long_name": "Kerala", "short_name": "KL", "types": ["administrative_area_level_1", "political"]}, {"long_name": "India", "short_name": "IN", "types": ["country", "political"]}], "formatted_address": "Thiruvananthapuram, Kerala, India", "geometry": {"bounds": {"northeast": {"lat": 8.6127611, "lng": 77.0070362}, "southwest": {"lat": 8.3867048, "lng": 76.84129709999999}}, "location": {"lat": 8.5241391, "lng": 76.9366376}, "location_type": "APPROXIMATE", "viewport": {"northeast": {"lat": 8.6127611, "lng": 77.0070362}, "southwest": {"lat": 8.3867048, "lng": 76.84129709999999}}}, "place_id": "ChIJR827Bbi7BTsRy4FcXKufQxU", "types": ["locality", "political"]}], "status": "OK"}
{"error_message": "Invalid request. Missing the 'address', 'components', 'latlng' or 'place_id' parameter.", "results": [], "status": "INVALID_REQUEST"}
{"results": [{"address_components": [{"long_name": "Guntur", "short_name": "GNT", "types": ["locality", "political"]}, {"long_name": "Guntur", "short_name": "Guntur", "types": ["administrative_area_level_2", "political"]}, {"long_name": "Andhra Pradesh", "short_name": "AP", "types": ["administrative_area_level_1", "political"]}, {"long_name": "India", "short_name": "IN", "types": ["country", "political"]}], "formatted_address": "Guntur, Andhra Pradesh, India", "geometry": {"bounds": {"northeast": {"lat": 16.3791914, "lng": 80.48378}, "southwest": {"lat": 16.2679498, "lng": 80.3852572}}, "location": {"lat": 16.3066525, "lng": 80.4365402}, "location_type": "APPROXIMATE", "viewport": {"northeast": {"lat": 16.3791914, "lng": 80.48378}, "southwest": {"lat": 16.2679498, "lng": 80.3852572}}}, "place_id": "ChIJhXd4sVx1SjoRlObxkN2ZeZ8", "types": ["locality", "political"]}], "status": "OK"}
{"error_message": "Invalid request. Missing the 'address', 'components', 'latlng' or 'place_id' parameter.", "results": [], "status": "INVALID_REQUEST"}
{"results": [{"address_components": [{"long_name": "Bhiwandi", "short_name": "Bhiwandi", "types": ["locality", "political"]}, {"long_name": "Thane", "short_name": "Thane", "types": ["administrative_area_level_2", "political"]}, {"long_name": "Maharashtra", "short_name": "MH", "types": ["administrative_area_level_1", "political"]}, {"long_name": "India", "short_name": "IN", "types": ["country", "political"]}], "formatted_address": "Bhiwandi, Maharashtra, India", "geometry": {"bounds": {"northeast": {"lat": 19.3349561, "lng": 73.1248282}, "southwest": {"lat": 19.2320667, "lng": 73.0080996}}, "location": {"lat": 19.2812547, "lng": 73.0482912}, "location_type": "APPROXIMATE", "viewport": {"northeast": {"lat": 19.3349561, "lng": 73.1248282}, "southwest": {"lat": 19.2320667, "lng": 73.0080996}}}, "place_id": "ChIJo0qCHhC95zsRrjHZxnKlcFk", "types": ["locality", "political"]}], "status": "OK"}
{"error_message": "Invalid request. Missing the 'address', 'components', 'latlng' or 'place_id' parameter.", "results": [], "status": "INVALID_REQUEST"}
{"results": [{"address_components": [{"long_name": "Saharanpur", "short_name": "Saharanpur", "types": ["locality", "political"]}, {"long_name": "Saharanpur", "short_name": "Saharanpur", "types": ["administrative_area_level_2", "political"]}, {"long_name": "Uttar Pradesh", "short_name": "UP", "types": ["administrative_area_level_1", "political"]}, {"long_name": "India", "short_name": "IN", "types": ["country", "political"]}], "formatted_address": "Saharanpur, Uttar Pradesh, India", "geometry": {"bounds": {"northeast": {"lat": 30.004268, "lng": 77.6124}, "southwest": {"lat": 29.9229989, "lng": 77.5004546}}, "location": {"lat": 29.967079, "lng": 77.55101719999999}, "location_type": "APPROXIMATE", "viewport": {"northeast": {"lat": 30.004268, "lng": 77.6124}, "southwest": {"lat": 29.9229989, "lng": 77.5004546}}}, "place_id": "ChIJRR-EH5LqDjkRH4EDCXivmwM", "types": ["locality", "political"]}], "status": "OK"}
{"error_message": "Invalid request. Missing the 'address', 'components', 'latlng' or 'place_id' parameter.", "results": [], "status": "INVALID_REQUEST"}
{"results": [{"address_components": [{"long_name": "Gorakhpur", "short_name": "Gorakhpur", "types": ["locality", "political"]}, {"long_name": "Fatehabad", "short_name": "Fatehabad", "types": ["administrative_area_level_2", "political"]}, {"long_name": "Haryana", "short_name": "HR", "types": ["administrative_area_level_1", "political"]}, {"long_name": "India", "short_name": "IN", "types": ["country", "political"]}, {"long_name": "125047", "short_name": "125047", "types": ["postal_code"]}], "formatted_address": "Gorakhpur, Haryana 125047, India", "geometry": {"bounds": {"northeast": {"lat": 29.4542284, "lng": 75.68020109999999}, "southwest": {"lat": 29.4392051, "lng": 75.6645155}}, "location": {"lat": 29.4438165, "lng": 75.67026469999999}, "location_type": "APPROXIMATE", "viewport": {"northeast": {"lat": 29.4542284, "lng": 75.68020109999999}, "southwest": {"lat": 29.4392051, "lng": 75.6645155}}}, "place_id": "ChIJmXA1WB9_ETkRVuT3lF7SqyY", "types": ["locality", "political"]}], "status": "OK"}
{"error_message": "Invalid request. Missing the 'address', 'components', 'latlng' or 'place_id' parameter.", "results": [], "status": "INVALID_REQUEST"}
{"results": [{"address_components": [{"long_name": "Bikaner", "short_name": "Bikaner", "types": ["locality", "political"]}, {"long_name": "Bikaner", "short_name": "Bikaner", "types": ["administrative_area_level_2", "political"]}, {"long_name": "Rajasthan", "short_name": "RJ", "types": ["administrative_area_level_1", "political"]}, {"long_name": "India", "short_name": "IN", "types": ["country", "political"]}], "formatted_address": "Bikaner, Rajasthan, India", "geometry": {"bounds": {"northeast": {"lat": 28.0641037, "lng": 73.37502479999999}, "southwest": {"lat": 27.9787122, "lng": 73.2640563}}, "location": {"lat": 28.0229348, "lng": 73.3119159}, "location_type": "APPROXIMATE", "viewport": {"northeast": {"lat": 28.0641037, "lng": 73.37502479999999}, "southwest": {"lat": 27.9787122, "lng": 73.2640563}}}, "place_id": "ChIJibsL2XvdPzkRa4FkdhoS40w", "types": ["locality", "political"]}], "status": "OK"}
{"error_message": "Invalid request. Missing the 'address', 'components', 'latlng' or 'place_id' parameter.", "results": [], "status": "INVALID_REQUEST"}
{"results": [{"address_components": [{"long_name": "Amravati", "short_name": "Amravati", "types": ["locality", "political"]}, {"long_name": "Amravati", "short_name": "Amravati", "types": ["administrative_area_level_2", "political"]}, {"long_name": "Maharashtra", "short_name": "MH", "types": ["administrative_area_level_1", "political"]}, {"long_name": "India", "short_name": "IN", "types": ["country", "political"]}], "formatted_address": "Amravati, Maharashtra, India", "geometry": {"bounds": {"northeast": {"lat": 21.0047146, "lng": 77.8367616}, "southwest": {"lat": 20.8034598, "lng": 77.68672939999999}}, "location": {"lat": 20.9374238, "lng": 77.7795513}, "location_type": "APPROXIMATE", "viewport": {"northeast": {"lat": 21.0047146, "lng": 77.8367616}, "southwest": {"lat": 20.8034598, "lng": 77.68672939999999}}}, "place_id": "ChIJFbx0d6ak1jsRNZZPyng_ezw", "types": ["locality", "political"]}], "status": "OK"}
{"error_message": "Invalid request. Missing the 'address', 'components', 'latlng' or 'place_id' parameter.", "results": [], "status": "INVALID_REQUEST"}
{"results": [{"address_components": [{"long_name": "Noida", "short_name": "Noida", "types": ["locality", "political"]}, {"long_name": "Gautam Buddh Nagar", "short_name": "Gautam Buddh Nagar", "types": ["administrative_area_level_2", "political"]}, {"long_name": "Uttar Pradesh", "short_name": "UP", "types": ["administrative_area_level_1", "political"]}, {"long_name": "India", "short_name": "IN", "types": ["country", "political"]}], "formatted_address": "Noida, Uttar Pradesh, India", "geometry": {"bounds": {"northeast": {"lat": 28.6363011, "lng": 77.50256329999999}, "southwest": {"lat": 28.397206, "lng": 77.2936967}}, "location": {"lat": 28.5355161, "lng": 77.3910265}, "location_type": "APPROXIMATE", "viewport": {"northeast": {"lat": 28.6363011, "lng": 77.50256329999999}, "southwest": {"lat": 28.397206, "lng": 77.2936967}}}, "place_id": "ChIJezVzMaTlDDkRP8B8yDDO_zc", "types": ["locality", "political"]}], "status": "OK"}
{"error_message": "Invalid request. Missing the 'address', 'components', 'latlng' or 'place_id' parameter.", "results": [], "status": "INVALID_REQUEST"}
{"results": [{"address_components": [{"long_name": "Jamshedpur", "short_name": "Jamshedpur", "types": ["locality", "political"]}, {"long_name": "East Singhbhum", "short_name": "East Singhbhum", "types": ["administrative_area_level_2", "political"]}, {"long_name": "Jharkhand", "short_name": "JH", "types": ["administrative_area_level_1", "political"]}, {"long_name": "India", "short_name": "IN", "types": ["country", "political"]}], "formatted_address": "Jamshedpur, Jharkhand, India", "geometry": {"bounds": {"northeast": {"lat": 22.8555169, "lng": 86.29065519999999}, "southwest": {"lat": 22.7125399, "lng": 86.0608864}}, "location": {"lat": 22.8045665, "lng": 86.2028754}, "location_type": "APPROXIMATE", "viewport": {"northeast": {"lat": 22.8555169, "lng": 86.29065519999999}, "southwest": {"lat": 22.7125399, "lng": 86.0608864}}}, "place_id": "ChIJteLwiRnj9TkRRLPpHOjI7g4", "types": ["locality", "political"]}], "status": "OK"}
{"error_message": "Invalid request. Missing the 'address', 'components', 'latlng' or 'place_id' parameter.", "results": [], "status": "INVALID_REQUEST"}
{"results": [{"address_components": [{"long_name": "Bhilai", "short_name": "Bhilai", "types": ["locality", "political"]}, {"long_name": "Durg", "short_name": "Durg", "types": ["administrative_area_level_2", "political"]}, {"long_name": "Chhattisgarh", "short_name": "CT", "types": ["administrative_area_level_1", "political"]}, {"long_name": "India", "short_name": "IN", "types": ["country", "political"]}], "formatted_address": "Bhilai, Chhattisgarh, India", "geometry": {"bounds": {"northeast": {"lat": 21.2588757, "lng": 81.4346199}, "southwest": {"lat": 21.13166, "lng": 81.24153009999999}}, "location": {"lat": 21.1938475, "lng": 81.3509416}, "location_type": "APPROXIMATE", "viewport": {"northeast": {"lat": 21.2588757, "lng": 81.4346199}, "southwest": {"lat": 21.13166, "lng": 81.24153009999999}}}, "place_id": "ChIJRe1J7Mw8KToRdxjJc73zPys", "types": ["locality", "political"]}], "status": "OK"}
{"error_message": "Invalid request. Missing the 'address', 'components', 'latlng' or 'place_id' parameter.", "results": [], "status": "INVALID_REQUEST"}
{"results": [{"address_components": [{"long_name": "Cuttack", "short_name": "Cuttack", "types": ["locality", "political"]}, {"long_name": "Cuttack", "short_name": "Cuttack", "types": ["administrative_area_level_2", "political"]}, {"long_name": "Odisha", "short_name": "OD", "types": ["administrative_area_level_1", "political"]}, {"long_name": "India", "short_name": "IN", "types": ["country", "political"]}], "formatted_address": "Cuttack, Odisha, India", "geometry": {"bounds": {"northeast": {"lat": 20.4971347, "lng": 85.9597349}, "southwest": {"lat": 20.42908, "lng": 85.7757568}}, "location": {"lat": 20.462521, "lng": 85.8829895}, "location_type": "APPROXIMATE", "viewport": {"northeast": {"lat": 20.4971347, "lng": 85.9597349}, "southwest": {"lat": 20.42908, "lng": 85.7757568}}}, "place_id": "ChIJga8jIoMNGToRLuU7kRz69SI", "types": ["locality", "political"]}], "status": "OK"}
{"error_message": "Invalid request. Missing the 'address', 'components', 'latlng' or 'place_id' parameter.", "results": [], "status": "INVALID_REQUEST"}
{"results": [{"address_components": [{"long_name": "Firozabad", "short_name": "Firozabad", "types": ["locality", "political"]}, {"long_name": "Firozabad", "short_name": "Firozabad", "types": ["administrative_area_level_2", "political"]}, {"long_name": "Uttar Pradesh", "short_name": "UP", "types": ["administrative_area_level_1", "political"]}, {"long_name": "India", "short_name": "IN", "types": ["country", "political"]}], "formatted_address": "Firozabad, Uttar Pradesh, India", "geometry": {"bounds": {"northeast": {"lat": 27.1852939, "lng": 78.4338386}, "southwest": {"lat": 27.1282325, "lng": 78.3553598}}, "location": {"lat": 27.1591961, "lng": 78.3957331}, "location_type": "APPROXIMATE", "viewport": {"northeast": {"lat": 27.1852939, "lng": 78.4338386}, "southwest": {"lat": 27.1282325, "lng": 78.3553598}}}, "place_id": "ChIJkem9cphGdDkR7qwRjDpmhN8", "types": ["locality", "political"]}], "status": "OK"}
{"error_message": "Invalid request. Missing the 'address', 'components', 'latlng' or 'place_id' parameter.", "results": [], "status": "INVALID_REQUEST"}
{"results": [{"address_components": [{"long_name": "Kochi", "short_name": "Kochi", "types": ["locality", "political"]}, {"long_name": "Ernakulam", "short_name": "EKM", "types": ["administrative_area_level_2", "political"]}, {"long_name": "Kerala", "short_name": "KL", "types": ["administrative_area_level_1", "political"]}, {"long_name": "India", "short_name": "IN", "types": ["country", "political"]}], "formatted_address": "Kochi, Kerala, India", "geometry": {"bounds": {"northeast": {"lat": 10.0965153, "lng": 76.4384936}, "southwest": {"lat": 9.780706600000002, "lng": 76.2023735}}, "location": {"lat": 9.9312328, "lng": 76.26730409999999}, "location_type": "APPROXIMATE", "viewport": {"northeast": {"lat": 10.0965153, "lng": 76.4384936}, "southwest": {"lat": 9.780706600000002, "lng": 76.2023735}}}, "place_id": "ChIJv8a-SlENCDsRkkGEpcqC1Qs", "types": ["locality", "political"]}], "status": "OK"}
{"error_message": "Invalid request. Missing the 'address', 'components', 'latlng' or 'place_id' parameter.", "results": [], "status": "INVALID_REQUEST"}
{"results": [{"address_components": [{"long_name": "Nellore", "short_name": "NLR", "types": ["locality", "political"]}, {"long_name": "Nellore", "short_name": "Nellore", "types": ["administrative_area_level_2", "political"]}, {"long_name": "Andhra Pradesh", "short_name": "AP", "types": ["administrative_area_level_1", "political"]}, {"long_name": "India", "short_name": "IN", "types": ["country", "political"]}], "formatted_address": "Nellore, Andhra Pradesh, India", "geometry": {"bounds": {"northeast": {"lat": 14.4794365, "lng": 80.0341557}, "southwest": {"lat": 14.3784833, "lng": 79.9272538}}, "location": {"lat": 14.4425987, "lng": 79.98645599999999}, "location_type": "APPROXIMATE", "viewport": {"northeast": {"lat": 14.4794365, "lng": 80.0341557}, "southwest": {"lat": 14.3784833, "lng": 79.9272538}}}, "place_id": "ChIJcYeVDsqMTDoRVR8WJSBsA9M", "types": ["locality", "political"]}], "status": "OK"}
{"error_message": "Invalid request. Missing the 'address', 'components', 'latlng' or 'place_id' parameter.", "results": [], "status": "INVALID_REQUEST"}
{"results": [{"address_components": [{"long_name": "Bhavnagar", "short_name": "Bhavnagar", "types": ["locality", "political"]}, {"long_name": "Bhavnagar", "short_name": "Bhavnagar", "types": ["administrative_area_level_2", "political"]}, {"long_name": "Gujarat", "short_name": "GJ", "types": ["administrative_area_level_1", "political"]}, {"long_name": "India", "short_name": "IN", "types": ["country", "political"]}], "formatted_address": "Bhavnagar, Gujarat, India", "geometry": {"bounds": {"northeast": {"lat": 21.8069582, "lng": 72.2277793}, "southwest": {"lat": 21.7207091, "lng": 72.0820329}}, "location": {"lat": 21.7644725, "lng": 72.15193040000001}, "location_type": "APPROXIMATE", "viewport": {"northeast": {"lat": 21.8069582, "lng": 72.2277793}, "southwest": {"lat": 21.7207091, "lng": 72.0820329}}}, "place_id": "ChIJL064q4FQXzkRbHETbkzWdvY", "types": ["locality", "political"]}], "status": "OK"}
{"error_message": "Invalid request. Missing the 'address', 'components', 'latlng' or 'place_id' parameter.", "results": [], "status": "INVALID_REQUEST"}
{"results": [{"address_components": [{"long_name": "Dehradun", "short_name": "Dehradun", "types": ["locality", "political"]}, {"long_name": "Dehradun", "short_name": "Dehradun", "types": ["administrative_area_level_2", "political"]}, {"long_name": "Uttarakhand", "short_name": "UK", "types": ["administrative_area_level_1", "political"]}, {"long_name": "India", "short_name": "IN", "types": ["country", "political"]}], "formatted_address": "Dehradun, Uttarakhand, India", "geometry": {"bounds": {"northeast": {"lat": 30.4041936, "lng": 78.1089305}, "southwest": {"lat": 30.2466633, "lng": 77.92533879999999}}, "location": {"lat": 30.3164945, "lng": 78.03219179999999}, "location_type": "APPROXIMATE", "viewport": {"northeast": {"lat": 30.4041936, "lng": 78.1089305}, "southwest": {"lat": 30.2466633, "lng": 77.92533879999999}}}, "place_id": "ChIJr4jIVsMpCTkRmYdRMsBiNUw", "types": ["locality", "political"]}], "status": "OK"}
{"error_message": "Invalid request. Missing the 'address', 'components', 'latlng' or 'place_id' parameter.", "results": [], "status": "INVALID_REQUEST"}
{"results": [{"address_components": [{"long_name": "Durgapur", "short_name": "Durgapur", "types": ["locality", "political"]}, {"long_name": "Bardhaman", "short_name": "Bardhaman", "types": ["administrative_area_level_2", "political"]}, {"long_name": "West Bengal", "short_name": "WB", "types": ["administrative_area_level_1", "political"]}, {"long_name": "India", "short_name": "IN", "types": ["country", "political"]}], "formatted_address": "Durgapur, West Bengal, India", "geometry": {"bounds": {"northeast": {"lat": 23.5908571, "lng": 87.38282269999999}, "southwest": {"lat": 23.4713502, "lng": 87.2175254}}, "location": {"lat": 23.5204443, "lng": 87.3119227}, "location_type": "APPROXIMATE", "viewport": {"northeast": {"lat": 23.5908571, "lng": 87.38282269999999}, "southwest": {"lat": 23.4713502, "lng": 87.2175254}}}, "place_id": "ChIJcZGoRwtx9zkR3QngV9sbnkI", "types": ["locality", "political"]}], "status": "OK"}
{"error_message": "Invalid request. Missing the 'address', 'components', 'latlng' or 'place_id' parameter.", "results": [], "status": "INVALID_REQUEST"}
{"results": [{"address_components": [{"long_name": "Asansol", "short_name": "Asansol", "types": ["locality", "political"]}, {"long_name": "Bardhaman", "short_name": "Bardhaman", "types": ["administrative_area_level_2", "political"]}, {"long_name": "West Bengal", "short_name": "WB", "types": ["administrative_area_level_1", "political"]}, {"long_name": "India", "short_name": "IN", "types": ["country", "political"]}], "formatted_address": "Asansol, West Bengal, India", "geometry": {"bounds": {"northeast": {"lat": 23.7219596, "lng": 87.0942602}, "southwest": {"lat": 23.6450746, "lng": 86.894291}}, "location": {"lat": 23.6739452, "lng": 86.9523954}, "location_type": "APPROXIMATE", "viewport": {"northeast": {"lat": 23.7219596, "lng": 87.0942602}, "southwest": {"lat": 23.6450746, "lng": 86.894291}}}, "place_id": "ChIJKSUCoQ4f9zkR_s4R_ef3iPg", "types": ["locality", "political"]}], "status": "OK"}
{"error_message": "Invalid request. Missing the 'address', 'components', 'latlng' or 'place_id' parameter.", "results": [], "status": "INVALID_REQUEST"}
{"results": [{"address_components": [{"long_name": "Nanded", "short_name": "Nanded", "types": ["locality", "political"]}, {"long_name": "Nanded", "short_name": "Nanded", "types": ["administrative_area_level_2", "political"]}, {"long_name": "Maharashtra", "short_name": "MH", "types": ["administrative_area_level_1", "political"]}, {"long_name": "India", "short_name": "IN", "types": ["country", "political"]}], "formatted_address": "Nanded, Maharashtra, India", "geometry": {"bounds": {"northeast": {"lat": 19.2103464, "lng": 77.3619461}, "southwest": {"lat": 19.0841821, "lng": 77.26976379999999}}, "location": {"lat": 19.1382514, "lng": 77.3209555}, "location_type": "APPROXIMATE", "viewport": {"northeast": {"lat": 19.2103464, "lng": 77.3619461}, "southwest": {"lat": 19.0841821, "lng": 77.26976379999999}}}, "place_id": "ChIJIRfTuWvW0TsR8dpVARgsiUM", "types": ["locality", "political"]}], "status": "OK"}
{"error_message": "Invalid request. Missing the 'address', 'components', 'latlng' or 'place_id' parameter.", "results": [], "status": "INVALID_REQUEST"}
{"results": [{"address_components": [{"long_name": "Kolhapur", "short_name": "Kolhapur", "types": ["locality", "political"]}, {"long_name": "Kolhapur", "short_name": "Kolhapur", "types": ["administrative_area_level_2", "political"]}, {"long_name": "Maharashtra", "short_name": "MH", "types": ["administrative_area_level_1", "political"]}, {"long_name": "India", "short_name": "IN", "types": ["country", "political"]}], "formatted_address": "Kolhapur, Maharashtra, India", "geometry": {"bounds": {"northeast": {"lat": 16.7672344, "lng": 74.2967607}, "southwest": {"lat": 16.6497027, "lng": 74.1809751}}, "location": {"lat": 16.7049873, "lng": 74.24325270000001}, "location_type": "APPROXIMATE", "viewport": {"northeast": {"lat": 16.7672344, "lng": 74.2967607}, "southwest": {"lat": 16.6497027, "lng": 74.1809751}}}, "place_id": "ChIJKXrA3gwAwTsRL-RSKWTq6Ow", "types": ["locality", "political"]}], "status": "OK"}
{"error_message": "Invalid request. Missing the 'address', 'components', 'latlng' or 'place_id' parameter.", "results": [], "status": "INVALID_REQUEST"}
{"results": [{"address_components": [{"long_name": "Ajmer", "short_name": "Ajmer", "types": ["locality", "political"]}, {"long_name": "Ajmer", "short_name": "Ajmer", "types": ["administrative_area_level_2", "political"]}, {"long_name": "Rajasthan", "short_name": "RJ", "types": ["administrative_area_level_1", "political"]}, {"long_name": "India", "short_name": "IN", "types": ["country", "political"]}], "formatted_address": "Ajmer, Rajasthan, India", "geometry": {"bounds": {"northeast": {"lat": 26.5252392, "lng": 74.7021311}, "southwest": {"lat": 26.3812472, "lng": 74.56929629999999}}, "location": {"lat": 26.4498954, "lng": 74.6399163}, "location_type": "APPROXIMATE", "viewport": {"northeast": {"lat": 26.5252392, "lng": 74.7021311}, "southwest": {"lat": 26.3812472, "lng": 74.56929629999999}}}, "place_id": "ChIJAc23_NjmazkR7gCB6xKPr8s", "types": ["locality", "political"]}], "status": "OK"}
{"error_message": "Invalid request. Missing the 'address', 'components', 'latlng' or 'place_id' parameter.", "results": [], "status": "INVALID_REQUEST"}
{"results": [{"address_components": [{"long_name": "6827", "short_name": "6827", "types": ["street_number"]}, {"long_name": "Snider Plaza", "short_name": "Snider Plaza", "types": ["route"]}, {"long_name": "Park Cities", "short_name": "Park Cities", "types": ["neighborhood", "political"]}, {"long_name": "Dallas", "short_name": "Dallas", "types": ["locality", "political"]}, {"long_name": "Dallas County", "short_name": "Dallas County", "types": ["administrative_area_level_2", "political"]}, {"long_name": "Texas", "short_name": "TX", "types": ["administrative_area_level_1", "political"]}, {"long_name": "United States", "short_name": "US", "types": ["country", "political"]}, {"long_name": "75205", "short_name": "75205", "types": ["postal_code"]}, {"long_name": "1330", "short_name": "1330", "types": ["postal_code_suffix"]}], "formatted_address": "6827 Snider Plaza, Dallas, TX 75205, USA", "geometry": {"location": {"lat": 32.8491903, "lng": -96.78817649999999}, "location_type": "ROOFTOP", "viewport": {"northeast": {"lat": 32.85053928029149, "lng": -96.78682751970848}, "southwest": {"lat": 32.84784131970849, "lng": -96.78952548029149}}}, "place_id": "ChIJRUJ4m92YToYRlafpvtBRZHk", "types": ["establishment", "jewelry_store", "point_of_interest", "store"]}], "status": "OK"}
{"error_message": "Invalid request. Missing the 'address', 'components', 'latlng' or 'place_id' parameter.", "results": [], "status": "INVALID_REQUEST"}
{"results": [{"address_components": [{"long_name": "Kalaburagi", "short_name": "Kalaburagi", "types": ["locality", "political"]}, {"long_name": "Gulbarga", "short_name": "Gulbarga", "types": ["administrative_area_level_2", "political"]}, {"long_name": "Karnataka", "short_name": "KA", "types": ["administrative_area_level_1", "political"]}, {"long_name": "India", "short_name": "IN", "types": ["country", "political"]}], "formatted_address": "Kalaburagi, Karnataka, India", "geometry": {"bounds": {"northeast": {"lat": 17.3986454, "lng": 76.8947258}, "southwest": {"lat": 17.279365, "lng": 76.78515449999999}}, "location": {"lat": 17.329731, "lng": 76.8342957}, "location_type": "APPROXIMATE", "viewport": {"northeast": {"lat": 17.3986454, "lng": 76.8947258}, "southwest": {"lat": 17.279365, "lng": 76.78515449999999}}}, "place_id": "ChIJV06CW0XHyDsRn-1XaTbjy0Q", "types": ["locality", "political"]}], "status": "OK"}
{"error_message": "Invalid request. Missing the 'address', 'components', 'latlng' or 'place_id' parameter.", "results": [], "status": "INVALID_REQUEST"}
{"results": [{"address_components": [{"long_name": "Jamnagar", "short_name": "Jamnagar", "types": ["locality", "political"]}, {"long_name": "Jamnagar", "short_name": "Jamnagar", "types": ["administrative_area_level_2", "political"]}, {"long_name": "Gujarat", "short_name": "GJ", "types": ["administrative_area_level_1", "political"]}, {"long_name": "India", "short_name": "IN", "types": ["country", "political"]}], "formatted_address": "Jamnagar, Gujarat, India", "geometry": {"bounds": {"northeast": {"lat": 22.5539791, "lng": 70.12989519999999}, "southwest": {"lat": 22.3946818, "lng": 69.9869318}}, "location": {"lat": 22.4707019, "lng": 70.05773}, "location_type": "APPROXIMATE", "viewport": {"northeast": {"lat": 22.5539791, "lng": 70.12989519999999}, "southwest": {"lat": 22.3946818, "lng": 69.9869318}}}, "place_id": "ChIJl0XANEkVVzkRynWbpIHdt-g", "types": ["locality", "political"]}], "status": "OK"}
{"error_message": "Invalid request. Missing the 'address', 'components', 'latlng' or 'place_id' parameter.", "results": [], "status": "INVALID_REQUEST"}
{"results": [{"address_components": [{"long_name": "Ujjain", "short_name": "Ujjain", "types": ["locality", "political"]}, {"long_name": "Ujjain", "short_name": "Ujjain", "types": ["administrative_area_level_2", "political"]}, {"long_name": "Madhya Pradesh", "short_name": "MP", "types": ["administrative_area_level_1", "political"]}, {"long_name": "India", "short_name": "IN", "types": ["country", "political"]}], "formatted_address": "Ujjain, Madhya Pradesh, India", "geometry": {"bounds": {"northeast": {"lat": 23.215594, "lng": 75.8384299}, "southwest": {"lat": 23.1224033, "lng": 75.756011}}, "location": {"lat": 23.1793013, "lng": 75.7849097}, "location_type": "APPROXIMATE", "viewport": {"northeast": {"lat": 23.215594, "lng": 75.8384299}, "southwest": {"lat": 23.1224033, "lng": 75.756011}}}, "place_id": "ChIJI_8A3ml0YzkREtSZeN-rgn8", "types": ["locality", "political"]}], "status": "OK"}
{"error_message": "Invalid request. Missing the 'address', 'components', 'latlng' or 'place_id' parameter.", "results": [], "status": "INVALID_REQUEST"}
{"results": [{"address_components": [{"long_name": "Loni", "short_name": "Loni", "types": ["locality", "political"]}, {"long_name": "Beed", "short_name": "Beed", "types": ["administrative_area_level_2", "political"]}, {"long_name": "Maharashtra", "short_name": "MH", "types": ["administrative_area_level_1", "political"]}, {"long_name": "India", "short_name": "IN", "types": ["country", "political"]}, {"long_name": "413204", "short_name": "413204", "types": ["postal_code"]}], "formatted_address": "Loni, Maharashtra 413204, India", "geometry": {"bounds": {"northeast": {"lat": 18.6705399, "lng": 75.42272009999999}, "southwest": {"lat": 18.6448499, "lng": 75.38936989999999}}, "location": {"lat": 18.6558243, "lng": 75.4082506}, "location_type": "APPROXIMATE", "viewport": {"northeast": {"lat": 18.6705399, "lng": 75.42272009999999}, "southwest": {"lat": 18.6448499, "lng": 75.38936989999999}}}, "place_id": "ChIJlTB3sKDBxDsRcTnps9XAJPc", "types": ["locality", "political"]}, {"address_components": [{"long_name": "Loni Kalbhor", "short_name": "Loni Kalbhor", "types": ["locality", "political"]}, {"long_name": "Pune", "short_name": "Pune", "types": ["administrative_area_level_2", "political"]}, {"long_name": "Maharashtra", "short_name": "MH", "types": ["administrative_area_level_1", "political"]}, {"long_name": "India", "short_name": "IN", "types": ["country", "political"]}], "formatted_address": "Loni Kalbhor, Maharashtra, India", "geometry": {"bounds": {"northeast": {"lat": 18.4988195, "lng": 74.05171770000001}, "southwest": {"lat": 18.4643399, "lng": 74.003091}}, "location": {"lat": 18.4878505, "lng": 74.0234138}, "location_type": "APPROXIMATE", "viewport": {"northeast": {"lat": 18.4988195, "lng": 74.05171770000001}, "southwest": {"lat": 18.4643399, "lng": 74.003091}}}, "place_id": "ChIJq1SjgwXowjsRZplBd83Aacg", "types": ["locality", "political"]}, {"address_components": [{"long_name": "Loni", "short_name": "Loni", "types": ["political", "sublocality", "sublocality_level_1"]}, {"long_name": "Ghaziabad", "short_name": "Ghaziabad", "types": ["locality", "political"]}, {"long_name": "Ghaziabad", "short_name": "Ghaziabad", "types": ["administrative_area_level_2", "political"]}, {"long_name": "Uttar Pradesh", "short_name": "UP", "types": ["administrative_area_level_1", "political"]}, {"long_name": "India", "short_name": "IN", "types": ["country", "political"]}, {"long_name": "201102", "short_name": "201102", "types": ["postal_code"]}], "formatted_address": "Loni, Ghaziabad, Uttar Pradesh 201102, India", "geometry": {"bounds": {"northeast": {"lat": 28.7516073, "lng": 77.3136917}, "southwest": {"lat": 28.722338, "lng": 77.2884991}}, "location": {"lat": 28.7316438, "lng": 77.30085059999999}, "location_type": "APPROXIMATE", "viewport": {"northeast": {"lat": 28.7516073, "lng": 77.3136917}, "southwest": {"lat": 28.722338, "lng": 77.2884991}}}, "place_id": "ChIJa4xctFr5DDkRHhElHipUlEU", "types": ["political", "sublocality", "sublocality_level_1"]}], "status": "OK"}
{"error_message": "Invalid request. Missing the 'address', 'components', 'latlng' or 'place_id' parameter.", "results": [], "status": "INVALID_REQUEST"}
{"results": [{"address_components": [{"long_name": "Siliguri", "short_name": "Siliguri", "types": ["locality", "political"]}, {"long_name": "Darjeeling", "short_name": "Darjeeling", "types": ["administrative_area_level_2", "political"]}, {"long_name": "West Bengal", "short_name": "WB", "types": ["administrative_area_level_1", "political"]}, {"long_name": "India", "short_name": "IN", "types": ["country", "political"]}], "formatted_address": "Siliguri, West Bengal, India", "geometry": {"bounds": {"northeast": {"lat": 26.7867629, "lng": 88.4792518}, "southwest": {"lat": 26.6517929, "lng": 88.3832931}}, "location": {"lat": 26.7271012, "lng": 88.39528609999999}, "location_type": "APPROXIMATE", "viewport": {"northeast": {"lat": 26.7867629, "lng": 88.4792518}, "southwest": {"lat": 26.6517929, "lng": 88.3832931}}}, "place_id": "ChIJzR1E9RRB5DkR_-1jIHDEtd4", "types": ["locality", "political"]}], "status": "OK"}
{"error_message": "Invalid request. Missing the 'address', 'components', 'latlng' or 'place_id' parameter.", "results": [], "status": "INVALID_REQUEST"}
{"results": [{"address_components": [{"long_name": "Jhansi", "short_name": "Jhansi", "types": ["locality", "political"]}, {"long_name": "Jhansi", "short_name": "Jhansi", "types": ["administrative_area_level_2", "political"]}, {"long_name": "Uttar Pradesh", "short_name": "UP", "types": ["administrative_area_level_1", "political"]}, {"long_name": "India", "short_name": "IN", "types": ["country", "political"]}], "formatted_address": "Jhansi, Uttar Pradesh, India", "geometry": {"bounds": {"northeast": {"lat": 25.5192066, "lng": 78.6355019}, "southwest": {"lat": 25.3630291, "lng": 78.4890747}}, "location": {"lat": 25.4484257, "lng": 78.5684594}, "location_type": "APPROXIMATE", "viewport": {"northeast": {"lat": 25.5192066, "lng": 78.6355019}, "southwest": {"lat": 25.3630291, "lng": 78.4890747}}}, "place_id": "ChIJA3e6WNR2dzkRyoE0XKXN6ZY", "types": ["locality", "political"]}], "status": "OK"}
{"error_message": "Invalid request. Missing the 'address', 'components', 'latlng' or 'place_id' parameter.", "results": [], "status": "INVALID_REQUEST"}
{"results": [{"address_components": [{"long_name": "Ulhasnagar", "short_name": "Ulhasnagar", "types": ["locality", "political"]}, {"long_name": "Thane", "short_name": "Thane", "types": ["administrative_area_level_2", "political"]}, {"long_name": "Maharashtra", "short_name": "MH", "types": ["administrative_area_level_1", "political"]}, {"long_name": "India", "short_name": "IN", "types": ["country", "political"]}], "formatted_address": "Ulhasnagar, Maharashtra, India", "geometry": {"bounds": {"northeast": {"lat": 19.2593667, "lng": 73.1885945}, "southwest": {"lat": 19.1887561, "lng": 73.14526880000001}}, "location": {"lat": 19.2215115, "lng": 73.1644628}, "location_type": "APPROXIMATE", "viewport": {"northeast": {"lat": 19.2593667, "lng": 73.1885945}, "southwest": {"lat": 19.1887561, "lng": 73.14526880000001}}},